"","NAME","TYPE","STATUS","LAT","LON","STAT2"
"1","CATHOLIC MEDICAL CENTER","GENERAL ACUTE CARE","OPEN",42.99156518,-71.4743109,"OPEN"
"2","CROTCHED MOUNTAIN REHABILITATION CENTER","REHABILITATION","OPEN",42.9718711,-71.87453591,"OPEN"
"3","MONADNOCK COMMUNITY HOSPITAL","GENERAL ACUTE CARE","OPEN",42.89308942,-71.94068275,"OPEN"
"4","SOUTHERN NEW HAMPSHIRE MEDICAL CENTER","GENERAL ACUTE CARE","OPEN",42.75627984,-71.4613747,"OPEN"
"5","ST JOSEPH HOSPITAL","GENERAL ACUTE CARE","OPEN",42.74923911,-71.48021205,"OPEN"
"6","ELLIOT HOSPITAL CITY OF MANCHESTER","GENERAL ACUTE CARE","OPEN",42.983954,-71.438,"OPEN"
"7","CONCORD HOSPITAL","GENERAL ACUTE CARE","OPEN",43.19774414,-71.5620204,"OPEN"
"8","FRANKLIN REGIONAL HOSPITAL","GENERAL ACUTE CARE","OPEN",43.44840426,-71.64455273,"OPEN"
"9","HEALTHSOUTH REHABILITATION HOSPITAL","REHABILITATION","OPEN",43.19977474,-71.56283486,"OPEN"
"10","NEW LONDON HOSPITAL","GENERAL ACUTE CARE","OPEN",43.42063768,-72.00004766,"OPEN"
"11","BROOKHAVEN MEMORIAL HOSPITAL MEDICAL CENTER","GENERAL ACUTE CARE","OPEN",40.78005719,-72.97714065,"OPEN"
"12","SOUTHAMPTON HOSPITAL","GENERAL ACUTE CARE","OPEN",40.88505974,-72.37994406,"OPEN"
"13","EASTERN LONG ISLAND HOSPITAL","GENERAL ACUTE CARE","OPEN",41.11036057,-72.36112732,"OPEN"
"14","HUNTINGTON HOSPITAL","GENERAL ACUTE CARE","OPEN",40.87932924,-73.41619953,"OPEN"
"15","SOUTHSIDE HOSPITAL","GENERAL ACUTE CARE","OPEN",40.72596015,-73.24115864,"OPEN"
"16","PECONIC BAY MEDICAL CENTER","GENERAL ACUTE CARE","OPEN",40.93426399,-72.67362495,"OPEN"
"17","ST CHARLES HOSPITAL AND REHABILITATION CENTER","GENERAL ACUTE CARE","OPEN",40.94663123,-73.06096322,"OPEN"
"18","CARDINAL HILL REHABILITATION HOSPITAL","REHABILITATION","OPEN",38.04697243,-84.54138894,"OPEN"
"19","FLEMING COUNTY HOSPITAL","GENERAL ACUTE CARE","OPEN",38.42215105,-83.75154531,"OPEN"
"20","BAPTIST HEALTH LEXINGTON","GENERAL ACUTE CARE","OPEN",38.01880519,-84.51185771,"OPEN"
"21","EASTERN STATE HOSPITAL","PSYCHIATRIC","OPEN",38.06030326,-84.49856874,"OPEN"
"22","ST. CATHERINE OF SIENA MEDICAL CENTER","GENERAL ACUTE CARE","OPEN",40.86850019,-73.22299673,"OPEN"
"23","SAINT JOSEPH EAST","GENERAL ACUTE CARE","OPEN",37.9994201,-84.439155,"OPEN"
"24","SAINT JOSEPH HOSPITAL","GENERAL ACUTE CARE","OPEN",38.03233973,-84.52329929,"OPEN"
"25","SHRINERS HOSPITAL FOR CHILDREN","CHILDREN","OPEN",38.02270661,-84.47269852,"OPEN"
"26","CAYUGA MEDICAL CENTER","GENERAL ACUTE CARE","OPEN",42.46898507,-76.53748416,"OPEN"
"27","GOOD SAMARITAN HOSPITAL - WEST ISLIP","GENERAL ACUTE CARE","OPEN",40.69388013,-73.29439462,"OPEN"
"28","GROVER M. HERMAN HOSPITAL","CRITICAL ACCESS","OPEN",41.74029193,-75.04741551,"OPEN"
"29","HEALTHALLIANCE HOSPITAL - MARY S AVENUE CAMPSU","GENERAL ACUTE CARE","OPEN",41.92149416,-73.99968712,"OPEN"
"30","HEALTHALLIANCE HOSPITAL - BROADWAY CAMPUS","GENERAL ACUTE CARE","OPEN",41.92665841,-73.99484207,"OPEN"
"31","ELLENVILLE REGIONAL HOSPITAL","CRITICAL ACCESS","OPEN",41.73262979,-74.37903498,"OPEN"
"32","GLENS FALLS HOSPITAL","GENERAL ACUTE CARE","OPEN",43.30662939,-73.64631274,"OPEN"
"33","WHITE PLAINS HOSPITAL CENTER","GENERAL ACUTE CARE","OPEN",41.02559431,-73.7693051,"OPEN"
"34","NEWARK-WAYNE COMMUNITY HOSPITAL","GENERAL ACUTE CARE","OPEN",43.06049938,-77.10166991,"OPEN"
"35","BURKE REHABILITATION CENTER","REHABILITATION","CLOSED",40.84418356,-73.83535509,"OPEN"
"36","ST. JOHN S RIVERSIDE HOSPITAL - DOBBS FERRY","GENERAL ACUTE CARE","OPEN",41.01439225,-73.86191965,"OPEN"
"37","NORTHERN WESTCHESTER HOSPITAL","GENERAL ACUTE CARE","OPEN",41.19705408,-73.72570075,"OPEN"
"38","PHELPS MEMORIAL HOSPITAL CENTER","GENERAL ACUTE CARE","OPEN",41.10900706,-73.86308776,"OPEN"
"39","TWIN LAKES REGIONAL MEDICAL CENTER","GENERAL ACUTE CARE","OPEN",37.4725153,-86.28859309,"OPEN"
"40","NEW YORK-PRESBYTERIAN/LAWRENCE HOSPITAL","GENERAL ACUTE CARE","OPEN",40.94209087,-73.8365642,"OPEN"
"41","JACKSON PURCHASE MEDICAL CENTER","GENERAL ACUTE CARE","OPEN",36.75920899,-88.65125908,"OPEN"
"42","OUR LADY OF BELLEFONTE HOSPITAL","GENERAL ACUTE CARE","OPEN",38.50845432,-82.69261651,"OPEN"
"43","BLYTHEDALE CHILDREN S HOSPITAL","CHILDREN","OPEN",41.07484754,-73.79997224,"OPEN"
"44","PASSAVANT AREA HOSPITAL","GENERAL ACUTE CARE","OPEN",39.74608499,-90.26048664,"OPEN"
"45","BROOK LANE HEALTH SERVICES","PSYCHIATRIC","OPEN",39.6769953,-77.6105994,"OPEN"
"46","SOLDIERS AND SAILORS MEMORIAL HOSPITAL","CRITICAL ACCESS","OPEN",42.67140067,-77.06119958,"OPEN"
"47","BRONX-LEBANON HOSPITAL CENTER - FULTON DIVISION","GENERAL ACUTE CARE","OPEN",40.83171479,-73.90405698,"OPEN"
"48","GARRARD COUNTY HOSPITAL","GENERAL ACUTE CARE","CLOSED",37.62202606,-84.58515725,"OPEN"
"49","WESTCHESTER MEDICAL CENTER","GENERAL ACUTE CARE","OPEN",41.08609075,-73.80495477,"OPEN"
"50","JACOBI MEDICAL CENTER","GENERAL ACUTE CARE","OPEN",40.85629836,-73.84751215,"OPEN"
"51","MONTEFIORE MEDICAL CENTER - MOSES DIVISION","GENERAL ACUTE CARE","OPEN",40.88007926,-73.8798267,"OPEN"
"52","FRANKFORT REGIONAL MEDICAL CENTER","LONG TERM CARE","OPEN",38.16066175,-84.9068937,"OPEN"
"53","CALVARY HOSPITAL","LONG TERM CARE","OPEN",40.84798989,-73.84394163,"OPEN"
"54","NORTH CENTRAL BRONX HOSPITAL","GENERAL ACUTE CARE","OPEN",40.8803656,-73.88105711,"OPEN"
"55","DEER S HEAD CENTER","CHRONIC DISEASE","OPEN",38.38229856,-75.5957198,"OPEN"
"56","MERITUS MEDICAL CENTER","GENERAL ACUTE CARE","OPEN",39.62219281,-77.68256295,"OPEN"
"57","WESTERN MARYLAND CENTER","LONG TERM CARE","OPEN",39.66242734,-77.71631192,"OPEN"
"58","WYOMING COUNTY COMMUNITY HOSPITAL","GENERAL ACUTE CARE","OPEN",42.75430004,-78.1310725,"OPEN"
"59","BROOKDALE HOSPITAL MEDICAL CENTER","GENERAL ACUTE CARE","OPEN",40.6552691,-73.91255653,"OPEN"
"60","BROOKLYN HOSPITAL CENTER","GENERAL ACUTE CARE","OPEN",40.69057251,-73.97788376,"OPEN"
"61","MONTEFIORE WESTCHESTER SQUARE MEDICAL CENTER","GENERAL ACUTE CARE","CLOSED",40.84074311,-73.84851753,"OPEN"
"62","KINGS COUNTY HOSPITAL CENTER","GENERAL ACUTE CARE","OPEN",40.65661638,-73.94469079,"OPEN"
"63","CONEY ISLAND HOSPITAL","GENERAL ACUTE CARE","OPEN",40.58541438,-73.96533243,"OPEN"
"64","LONG ISLAND COLLEGE HOSPITAL","GENERAL ACUTE CARE","CLOSED",40.69059527,-73.99787756,"OPEN"
"65","MAIMONIDES MEDICAL CENTER","GENERAL ACUTE CARE","OPEN",40.63947888,-73.99845264,"OPEN"
"66","HARRISON MEMORIAL HOSPITAL","GENERAL ACUTE CARE","OPEN",38.38396873,-84.27768646,"OPEN"
"67","NYU LUTHERAN MEDICAL CENTER","GENERAL ACUTE CARE","OPEN",40.64656399,-74.02091469,"OPEN"
"68","NEW YORK METHODIST HOSPITAL","GENERAL ACUTE CARE","OPEN",40.6677617,-73.97899052,"OPEN"
"69","INTERFAITH MEDICAL CENTER","GENERAL ACUTE CARE","OPEN",40.67823304,-73.93736834,"OPEN"
"70","WYCKOFF HEIGHTS MEDICAL CENTER","GENERAL ACUTE CARE","OPEN",40.70396404,-73.9177637,"OPEN"
"71","NYU HOSPITAL FOR JOINT DISEASES","GENERAL ACUTE CARE","OPEN",40.73443169,-73.98299996,"OPEN"
"72","HOSPITAL FOR SPECIAL SURGERY","SPECIAL","OPEN",40.76492338,-73.95231485,"OPEN"
"73","LENOX HILL HOSPITAL","GENERAL ACUTE CARE","OPEN",40.77370268,-73.96089077,"OPEN"
"74","METROPOLITAN HOSPITAL CENTER","GENERAL ACUTE CARE","OPEN",40.78492694,-73.94453023,"OPEN"
"75","NEW YORK EYE AND EAR INFIRMARY","SPECIAL","OPEN",40.73185306,-73.98448331,"OPEN"
"76","NEW YORK PRESBYTERIAN MORGAN STANLEY CHILDREN S HOSPITAL","CHILDREN","OPEN",40.83976326,-73.94128258,"OPEN"
"77","MOUNT SINAI HOSPITAL","GENERAL ACUTE CARE","OPEN",40.78976753,-73.95321427,"OPEN"
"78","THE ADDICTION INSTITUTE OF NEW YORK","PSYCHIATRIC","CLOSED",40.76941213,-73.9868084,"OPEN"
"79","GRACIE SQUARE HOSPITAL","PSYCHIATRIC","OPEN",40.7697165,-73.95302135,"OPEN"
"80","COLER-GOLDWATER SPECIALTY HOSPITAL & NURSING FACILITY - COLER HOSPITAL SITE","LONG TERM CARE","OPEN",40.77030214,-73.94214388,"OPEN"
"81","RICHMOND UNIVERSITY MEDICAL CENTER - BAYLEY SETON CAMPUS","PSYCHIATRIC","OPEN",40.62242782,-74.0753546,"OPEN"
"82","GOLDWATER SPECIALTY HOSPITAL","GENERAL ACUTE CARE","CLOSED",40.75483575,-73.95628185,"OPEN"
"83","FLUSHING HOSPITAL MEDICAL CENTER","GENERAL ACUTE CARE","OPEN",40.75540992,-73.81646552,"OPEN"
"84","QUEENS HOSPITAL CENTER","GENERAL ACUTE CARE","OPEN",40.71707221,-73.80455619,"OPEN"
"85","ELMHURST HOSPITAL CENTER","GENERAL ACUTE CARE","OPEN",40.74482736,-73.88607967,"OPEN"
"86","JAMAICA HOSPITAL MEDICAL CENTER","GENERAL ACUTE CARE","OPEN",40.70010365,-73.81611489,"OPEN"
"87","ST. JOHN S EPISCOPAL HOSPITAL-SOUTH SHORE","GENERAL ACUTE CARE","OPEN",40.59870798,-73.75355062,"OPEN"
"88","MEMORIAL HOSPITAL OF CARBONDALE","GENERAL ACUTE CARE","OPEN",37.72744555,-89.22059253,"OPEN"
"89","IROQUOIS MEMORIAL HOSPITAL","GENERAL ACUTE CARE","OPEN",40.76560189,-87.73251748,"OPEN"
"90","HOOPESTON COMMUNITY MEMORIAL HOSPITAL","CRITICAL ACCESS","OPEN",40.45868989,-87.65973327,"OPEN"
"91","TRIGG COUNTY HOSPITAL INC.","GENERAL ACUTE CARE","OPEN",36.86634023,-87.82153878,"OPEN"
"92","METHODIST HOSPITAL UNION COUNTY","GENERAL ACUTE CARE","OPEN",37.62879646,-87.94765598,"OPEN"
"93","PRESENCE UNITED SAMARITANS MEDCTR-LOGAN","GENERAL ACUTE CARE","OPEN",40.13783245,-87.64543324,"OPEN"
"94","VETERANS AFFAIRS ILLIANA HEALTH CARE SYSTEM","MILITARY","OPEN",40.12327171,-87.58695313,"OPEN"
"95","GREENVIEW REGIONAL HOSPITAL","GENERAL ACUTE CARE","OPEN",36.96503762,-86.43597977,"OPEN"
"96","RIVENDELL BEHAVIORAL HEALTH SERVICES","PSYCHIATRIC","OPEN",36.99707201,-86.38313695,"OPEN"
"97","SOUTHERN KENTUCKY REHABILITATION HOSPITAL","REHABILITATION","OPEN",36.95703881,-86.44648889,"OPEN"
"98","THE MEDICAL CENTER AT BOWLING GREEN","GENERAL ACUTE CARE","OPEN",36.99597151,-86.42975938,"OPEN"
"99","FOREST HILLS HOSPITAL","GENERAL ACUTE CARE","OPEN",40.72899467,-73.85150671,"OPEN"
"100","WOODHULL MEDICAL AND MENTAL HEALTH CENTER","GENERAL ACUTE CARE","OPEN",40.69952267,-73.94237898,"OPEN"
"101","NEW YORK HOSPITAL QUEENS","GENERAL ACUTE CARE","OPEN",40.74677228,-73.82541638,"OPEN"
"102","RICHMOND UNIVERSITY MEDICAL CENTER - MAIN CAMPUS","GENERAL ACUTE CARE","OPEN",40.63590241,-74.1059378,"OPEN"
"103","STATEN ISLAND UNIVERSITY HOSPITAL - NORTH","GENERAL ACUTE CARE","OPEN",40.58498461,-74.08621989,"OPEN"
"104","MILLARD FILLMORE SUBURBAN HOSPITAL","GENERAL ACUTE CARE","OPEN",42.99403948,-78.73023829,"OPEN"
"105","ALBANY MEMORIAL HOSPITAL","GENERAL ACUTE CARE","OPEN",42.67418337,-73.748675,"OPEN"
"106","BELLEVUE HOSPITAL CENTER","GENERAL ACUTE CARE","OPEN",40.7393201,-73.97538175,"OPEN"
"107","WEST BRANCH REGIONAL MEDICAL CENTER","GENERAL ACUTE CARE","OPEN",44.26380231,-84.24430076,"OPEN"
"108","BRONX-LEBANON HOSPITAL CENTER - CONCOURSE DIVISION","GENERAL ACUTE CARE","OPEN",40.84349255,-73.91114695,"OPEN"
"109","ELLIS HOSPITAL","GENERAL ACUTE CARE","OPEN",42.81985762,-73.91731809,"OPEN"
"110","GLEN COVE HOSPITAL","GENERAL ACUTE CARE","OPEN",40.8710014,-73.62238567,"OPEN"
"111","KINGSBROOK JEWISH MEDICAL CENTER","GENERAL ACUTE CARE","OPEN",40.65944045,-73.93354531,"OPEN"
"112","LENOX HILL HEALTHPLEX","GENERAL ACUTE CARE","CLOSED",40.73773991,-74.00074457,"OPEN"
"113","LONG ISLAND JEWISH MEDICAL CENTER","GENERAL ACUTE CARE","OPEN",40.75434328,-73.70810636,"OPEN"
"114","MERCY HOSPITAL - MERCY HOSPITAL ORCHARD PARK DIVISION","GENERAL ACUTE CARE","OPEN",42.78054509,-78.77257279,"OPEN"
"115","EPHRAIM MCDOWELL FORT LOGAN HOSPITAL","CRITICAL ACCESS","OPEN",37.54279432,-84.65303656,"OPEN"
"116","WHITESBURG ARH HOSPITAL","GENERAL ACUTE CARE","OPEN",37.11292722,-82.81252179,"OPEN"
"117","MOHAWK VALLEY HEART INSTITUTE  INC","SPECIAL","OPEN",43.08149046,-75.26660171,"OPEN"
"118","MONTEFIORE MOUNT VERNON HOSPITAL","GENERAL ACUTE CARE","OPEN",40.91289836,-73.840562,"OPEN"
"119","MARY BRECKINRIDGE ARH HOSPITAL","CRITICAL ACCESS","OPEN",37.16410598,-83.37858386,"OPEN"
"120","LIVINGSTON HOSPITAL AND HEALTHCARE SERVICES","CRITICAL ACCESS","OPEN",37.26305319,-88.22850246,"OPEN"
"121","MONTEFIORE NEW ROCHELLE HOSPITAL","GENERAL ACUTE CARE","OPEN",40.91280606,-73.7877626,"OPEN"
"122","MOUNT SINAI BETH ISRAEL BROOKLYN","GENERAL ACUTE CARE","OPEN",40.6188201,-73.94290124,"OPEN"
"123","MOUNT SINAI HOSPITAL - MOUNT SINAI HOSPITAL OF QUEENS","GENERAL ACUTE CARE","OPEN",40.76829506,-73.92488434,"OPEN"
"124","NEW YORK PRESBYTERIAN HOSPITAL - ALLEN HOSPITAL","GENERAL ACUTE CARE","OPEN",40.87327524,-73.91305033,"OPEN"
"125","NEW YORK PRESBYTERIAN HOSPITAL - WESTCHESTER DIVISION","PSYCHIATRIC","OPEN",41.02757951,-73.75390988,"OPEN"
"126","NEWYORK-PRESBYTERIAN/HUDSON VALLEY HOSPITAL","GENERAL ACUTE CARE","OPEN",41.29246466,-73.89260099,"OPEN"
"127","NICHOLAS H NOYES MEMORIAL HOSPITAL","GENERAL ACUTE CARE","OPEN",42.55302525,-77.69777078,"OPEN"
"128","NORTHERN DUTCHESS HOSPITAL","GENERAL ACUTE CARE","OPEN",41.93547004,-73.91319583,"OPEN"
"129","CROUSE HOSPITAL - COMMONWEALTH DIVISION","SPECIAL","OPEN",43.09843904,-76.10738979,"OPEN"
"130","ONEIDA HEALTHCARE","GENERAL ACUTE CARE","OPEN",43.07770601,-75.65449007,"OPEN"
"131","OSWEGO HOSPITAL - ALVIN L KRAKAU COMM MTL HEALTH CENTER DIV","PSYCHIATRIC","OPEN",43.448562,-76.48991686,"OPEN"
"132","ROCKEFELLER UNIVERSITY HOSPITAL","GENERAL ACUTE CARE","OPEN",40.76304744,-73.95462317,"OPEN"
"133","HARLEM HOSPITAL CENTER","GENERAL ACUTE CARE","OPEN",40.81426493,-73.93986126,"OPEN"
"134","HENRY J. CARTER SPECIALTY HOSPITAL","LONG TERM CARE","OPEN",40.80328511,-73.94162385,"OPEN"
"135","SBH HEALTH SYSTEM","GENERAL ACUTE CARE","OPEN",40.85268901,-73.89136288,"OPEN"
"136","IRA DAVENPORT MEMORIAL HOSPITAL INC","GENERAL ACUTE CARE","OPEN",42.3743292,-77.27890663,"OPEN"
"137","JOHN T MATHER MEMORIAL HOSPITAL OF PORT JEFFERSON NEW YORK INC","GENERAL ACUTE CARE","OPEN",40.9390674,-73.05439851,"OPEN"
"138","ST. MARY S HEALTHCARE - AMSTERDAM MEMORIAL CAMPUS","GENERAL ACUTE CARE","OPEN",42.95906517,-74.18712293,"OPEN"
"139","ST. PETER S ADDICTION RECOVERY CENTER","REHABILITATION","OPEN",42.69962755,-73.90522461,"OPEN"
"140","THE BURDETT CARE CENTER","WOMEN","OPEN",42.73335775,-73.67266608,"OPEN"
"141","MEMORIAL HOSPITAL ASSOCIATION","CRITICAL ACCESS","OPEN",40.40799681,-91.11326503,"OPEN"
"142","MORRIS HOSPITAL & HEALTHCARE CENTERS","GENERAL ACUTE CARE","OPEN",41.3693259,-88.42675331,"OPEN"
"143","THOMAS H BOYD MEMORIAL HOSPITAL","CRITICAL ACCESS","OPEN",39.29680259,-90.41276401,"OPEN"
"144","ADVOCATE EUREKA  HOSPITAL","CRITICAL ACCESS","OPEN",40.72138986,-89.27158643,"OPEN"
"145","VAN MATRE REHABILITATION HOSPITAL","REHABILITATION","OPEN",42.25854854,-88.9971556,"OPEN"
"146","SWEDISH AMERICAN HOSPITAL","GENERAL ACUTE CARE","OPEN",42.26567488,-89.07413954,"OPEN"
"147","THE UNITY HOSPITAL OF ROCHESTER","GENERAL ACUTE CARE","OPEN",43.19291838,-77.70515091,"OPEN"
"148","ROCKFORD MEMORIAL HOSPITAL","GENERAL ACUTE CARE","OPEN",42.29842717,-89.09844135,"OPEN"
"149","HERRIN HOSPITAL","GENERAL ACUTE CARE","OPEN",37.8010121,-89.02631327,"OPEN"
"150","HEARTLAND REGIONAL MEDICAL CENTER","GENERAL ACUTE CARE","OPEN",37.74284317,-88.99133558,"OPEN"
"151","THE UNITY HOSPITAL OF ROCHESTER-ST MARYS CAMPUS","PSYCHIATRIC","OPEN",43.14869528,-77.63709975,"OPEN"
"152","MEDSTAR SAINT MARY S HOSPITAL","GENERAL ACUTE CARE","OPEN",38.30213763,-76.63827028,"OPEN"
"153","MID-HUDSON VALLEY DIVISION OF WESTCHESTER MEDICAL CENTER","GENERAL ACUTE CARE","OPEN",41.71783839,-73.92770935,"OPEN"
"154","MONTEFIORE MED CENTER - JACK D WEILER HOSP OF A EINSTEIN COLLEGE DIV","GENERAL ACUTE CARE","OPEN",40.84988921,-73.84589022,"OPEN"
"155","THE UNIVERSITY OF VERMONT HEALTH NETWORK - CHAMPLAIN VALLEY PHYSICIANS HOSPITAL","GENERAL ACUTE CARE","OPEN",44.70044304,-73.46941987,"OPEN"
"156","TRI TOWN REGIONAL HEALTHCARE","GENERAL ACUTE CARE","OPEN",42.3041547,-75.39546902,"OPEN"
"157","MONTEFIORE MEDICAL CENTER-WAKEFIELD HOSPITAL","GENERAL ACUTE CARE","OPEN",40.89369717,-73.86119119,"OPEN"
"158","MOUNT SINAI WEST","GENERAL ACUTE CARE","OPEN",40.76982061,-73.9874019,"OPEN"
"159","MARION IL VA MEDICAL CENTER","MILITARY","OPEN",37.72431427,-88.954816,"OPEN"
"160","HOLY CROSS HOSPITAL","GENERAL ACUTE CARE","OPEN",39.01472214,-77.03573523,"OPEN"
"161","SILVER CROSS HOSPITAL  AND MEDICAL CENTERS","GENERAL ACUTE CARE","OPEN",41.54468733,-87.98343597,"OPEN"
"162","ADVENTIST BOLINGBROOK HOSPITAL","GENERAL ACUTE CARE","OPEN",41.68086496,-88.08465144,"OPEN"
"163","FORT WASHINGTON HOSPITAL","GENERAL ACUTE CARE","OPEN",38.72856337,-76.99270169,"OPEN"
"164","DEBORAH HEART AND LUNG CENTER","SPECIAL","OPEN",39.97725682,-74.58514441,"OPEN"
"165","MARLTON REHABILITATION HOSPITAL","REHABILITATION","OPEN",39.88243807,-74.91813873,"OPEN"
"166","CGH MEDICAL CENTER","GENERAL ACUTE CARE","OPEN",41.80220562,-89.69665558,"OPEN"
"167","DOCTORS  COMMUNITY HOSPITAL","GENERAL ACUTE CARE","OPEN",38.98269454,-76.8652504,"OPEN"
"168","MOUNT SINAI ST. LUKE S","GENERAL ACUTE CARE","OPEN",40.80492254,-73.96159035,"OPEN"
"169","NEW YORK PRESBYTERIAN HOSPITAL - COLUMBIA PRESBYTERIAN CENTER","GENERAL ACUTE CARE","OPEN",40.84105288,-73.94068652,"OPEN"
"170","NEW YORK PRESBYTERIAN HOSPITAL - NEW YORK WEILL CORNELL CENTER","GENERAL ACUTE CARE","OPEN",40.76454994,-73.95433226,"OPEN"
"171","UNITED MEMORIAL MEDICAL CENTER NORTH STREET CAMPUS","GENERAL ACUTE CARE","OPEN",43.00506087,-78.17663186,"OPEN"
"172","UNIVERSITY HOSPITAL OF BROOKLYN","GENERAL ACUTE CARE","OPEN",40.65484188,-73.94422785,"OPEN"
"173","NEW YORK-PRESBYTERIAN/LOWER MANHATTAN HOSPITAL","GENERAL ACUTE CARE","OPEN",40.71051679,-74.00529783,"OPEN"
"174","NYU HOSPITALS CENTER","GENERAL ACUTE CARE","OPEN",40.7420469,-73.97392933,"OPEN"
"175","NYULMC - COBBLE HILL","GENERAL ACUTE CARE","CLOSED",40.68987342,-73.99776571,"OPEN"
"176","URMC STRONG WEST","GENERAL ACUTE CARE","OPEN",43.22161178,-77.94457511,"OPEN"
"177","SJRH - ST JOHNS DIVISION","GENERAL ACUTE CARE","OPEN",40.96891353,-73.88614692,"OPEN"
"178","WINIFRED MASTERSON BURKE REHABILITATION HOSPITAL","REHABILITATION","OPEN",41.01680868,-73.7515055,"OPEN"
"179","ST JAMES MERCY HOSPITAL - MERCYCARE","GENERAL ACUTE CARE","CLOSED",42.34748774,-77.66309791,"OPEN"
"180","ST JOSEPH S MEDICAL CENTER","GENERAL ACUTE CARE","OPEN",40.92925602,-73.89769468,"OPEN"
"181","WOMEN AND CHILDREN S HOSPITAL OF BUFFALO","CHILDREN","OPEN",42.90920851,-78.87520901,"OPEN"
"182","STATEN ISLAND UNIV HOSP-CONCORD DIV","GENERAL ACUTE CARE","CLOSED",40.60306403,-74.09182025,"OPEN"
"183","WINTHROP-UNIVERSITY HOSPITAL","GENERAL ACUTE CARE","OPEN",40.74069748,-73.6430084,"OPEN"
"184","WOMANS CHRISTIAN ASSOC HOSPITAL - WCA HOSP AT JONES MEMORIAL HEALTH CENTER","PSYCHIATRIC","OPEN",42.09116724,-79.24536584,"OPEN"
"185","ADIRONDACK MEDICAL CENTER-LAKE PLACID SITE","GENERAL ACUTE CARE","CLOSED",44.26724503,-73.98186928,"OPEN"
"186","MARY IMOGENE BASSETT HOSPITAL","GENERAL ACUTE CARE","OPEN",42.69525514,-74.92295557,"OPEN"
"187","CORNING HOSPITAL","GENERAL ACUTE CARE","OPEN",42.13535079,-76.96951777,"OPEN"
"188","MOUNT SINAI BETH ISRAEL","GENERAL ACUTE CARE","OPEN",40.73310481,-73.98177078,"OPEN"
"189","SJRH - PARK CARE PAVILION","PSYCHIATRIC","OPEN",40.94038607,-73.89165239,"OPEN"
"190","TLC HEALTH NETWORK LAKE SHORE HOSPITAL","GENERAL ACUTE CARE","OPEN",42.55848862,-79.12583875,"OPEN"
"191","ST JOSEPHS HOSPITAL","GENERAL ACUTE CARE","OPEN",42.09195035,-76.7984345,"OPEN"
"192","KELLER ARMY COMMUNITY HOSPITAL","MILITARY","OPEN",41.40187124,-73.97713704,"OPEN"
"193","VA MEDICAL CENTER - BATAVIA","MILITARY","OPEN",43.0133403,-78.19787395,"OPEN"
"194","VA MEDICAL CENTER - ALBANY STRATTON","MILITARY","OPEN",42.65080818,-73.7719446,"OPEN"
"195","VA MEDICAL CENTER - BATH","MILITARY","OPEN",42.34405241,-77.34750919,"OPEN"
"196","VA MEDICAL CENTER - BUFFALO","MILITARY","OPEN",42.95109263,-78.81215039,"OPEN"
"197","VA MEDICAL CENTER - CANANDAIGUA","MILITARY","OPEN",42.90123744,-77.26963606,"OPEN"
"198","VA MEDICAL CENTER - CASTLE POINT CAMPUS","MILITARY","OPEN",41.54362128,-73.96337745,"OPEN"
"199","VA MEDICAL CENTER - MONTROSE CAMPUS","MILITARY","OPEN",41.23701881,-73.92928204,"OPEN"
"200","JAMES J. PETERS VA MEDICAL CENTER","MILITARY","OPEN",40.86734866,-73.90638209,"OPEN"
"201","VA MEDICAL CENTER - MANHATTAN CAMPUS","MILITARY","OPEN",40.73688147,-73.97707927,"OPEN"
"202","VA MEDICAL CENTER - NORTHPORT","MILITARY","OPEN",40.89367574,-73.30869305,"OPEN"
"203","VA MEDICAL CENTER - SYRACUSE","MILITARY","OPEN",43.0388312,-76.13895418,"OPEN"
"204","VA MEDICAL CENTER - BROOKLYN CAMPUS","MILITARY","OPEN",40.60792285,-74.02418643,"OPEN"
"205","ST. ALBANS COMMUNITY LIVING CENTER","MILITARY","OPEN",40.69064667,-73.76867577,"OPEN"
"206","MALLARD FILLMORE GATES","GENERAL ACUTE CARE","CLOSED",42.91923203,-78.8671111,"OPEN"
"207","CAPITAL DISTRICT PSYCHIATRIC CENTER","PSYCHIATRIC","OPEN",42.65449071,-73.78020285,"OPEN"
"208","ST JOHN S EPISCOPAL HOSPITAL SOUTH SHORE","GENERAL ACUTE CARE","OPEN",40.74381418,-73.49679139,"OPEN"
"209","BRUNSWICK HOSPITAL CENTER  INC","PSYCHIATRIC","OPEN",40.68523661,-73.42114535,"OPEN"
"210","BRYLIN HOSPITAL","PSYCHIATRIC","OPEN",42.91841783,-78.86800239,"OPEN"
"211","CAPE REGIONAL MEDICAL CENTER","GENERAL ACUTE CARE","OPEN",39.08761376,-74.81717152,"OPEN"
"212","THE LONG ISLAND HOME","PSYCHIATRIC","OPEN",40.68576604,-73.42263251,"OPEN"
"213","FOUR WINDS HOSPITAL WESTCHESTER","PSYCHIATRIC","OPEN",41.26639132,-73.62071751,"OPEN"
"214","FOUR WINDS HOSPITAL SARATOGA","PSYCHIATRIC","OPEN",43.05813047,-73.78539606,"OPEN"
"215","METHODIST HOSPITAL","GENERAL ACUTE CARE","OPEN",37.85497461,-87.58319902,"OPEN"
"216","CROSSROADS COMMUNITY HOSPITAL","GENERAL ACUTE CARE","OPEN",38.31164516,-88.93688084,"OPEN"
"217","JERSEY COMMUNITY HOSPITAL","GENERAL ACUTE CARE","OPEN",39.11054067,-90.34288716,"OPEN"
"218","MIDWEST MEDICAL CENTER","CRITICAL ACCESS","OPEN",42.44917757,-90.4577401,"OPEN"
"219","COPLEY MEMORIAL HOSPITAL","GENERAL ACUTE CARE","OPEN",41.72900718,-88.27061598,"OPEN"
"220","DELNOR COMMUNITY HOSPITAL","GENERAL ACUTE CARE","OPEN",41.88661497,-88.34345036,"OPEN"
"221","PRESENCE MERCY MEDICAL CENTER","GENERAL ACUTE CARE","OPEN",41.78580955,-88.32576904,"OPEN"
"222","GOOD SAMARITAN REGIONAL HLTH CENTER","GENERAL ACUTE CARE","CLOSED",38.3223146,-88.91029407,"OPEN"
"223","WAYNE COUNTY HOSPITAL","GENERAL ACUTE CARE","OPEN",36.81986477,-84.86689261,"OPEN"
"224","BAPTIST REGIONAL MEDICAL CENTER","GENERAL ACUTE CARE","OPEN",36.9228222,-84.11972991,"OPEN"
"225","BLUEGRASS COMMUNITY HOSPITAL","GENERAL ACUTE CARE","OPEN",38.05476569,-84.72378834,"OPEN"
"226","BARBOURVILLE ARH HOSPITAL","CRITICAL ACCESS","OPEN",36.85105102,-83.87016565,"OPEN"
"227","SAINT JOSEPH HOSPITAL LONDON","GENERAL ACUTE CARE","OPEN",37.11771211,-84.10900237,"OPEN"
"228","THREE RIVERS MEDICAL CENTER","GENERAL ACUTE CARE","OPEN",38.09248664,-82.6044083,"OPEN"
"229","GIBSON COMMUNITY HOSPITAL","CRITICAL ACCESS","OPEN",40.47836698,-88.37026499,"OPEN"
"230","GRAHAM HOSPITAL ASSOCIATION","GENERAL ACUTE CARE","OPEN",40.55266909,-90.03882997,"OPEN"
"231","CLIFTON T PERKINS HOSPITAL CENTER","PSYCHIATRIC","OPEN",39.13984869,-76.7953656,"OPEN"
"232","HOWARD COUNTY GENERAL HOSPITAL","GENERAL ACUTE CARE","OPEN",39.21435984,-76.88586971,"OPEN"
"233","SHEPPARD PRATT AT ELLICOTT CITY","GENERAL ACUTE CARE","OPEN",39.25569234,-76.79311804,"OPEN"
"234","GARRETT COUNTY MEMORIAL HOSPITAL","GENERAL ACUTE CARE","OPEN",39.41344074,-79.40097852,"OPEN"
"235","BIG BEND REGIONAL MEDICAL CENTER","CRITICAL ACCESS","OPEN",30.38394439,-103.6704807,"OPEN"
"236","WINNIE COMMUNITY HOSPITAL","CRITICAL ACCESS","OPEN",29.81969711,-94.37646869,"OPEN"
"237","UNIVERSITY OF MD SHORE MEDICAL CTR AT CHESTERTOWN","GENERAL ACUTE CARE","OPEN",39.21747943,-76.06493932,"OPEN"
"238","BALLINGER MEMORIAL HOSPITAL","CRITICAL ACCESS","OPEN",31.74997292,-99.96290978,"OPEN"
"239","TMC BONHAM HOSPITAL","CRITICAL ACCESS","OPEN",33.57832798,-96.16664583,"OPEN"
"240","HEART OF TEXAS MEMORIAL HOSPITAL","CRITICAL ACCESS","OPEN",31.1176885,-99.34685361,"OPEN"
"241","CHI ST. JOSEPH HEALTH BURLESON HOSPITAL","CRITICAL ACCESS","OPEN",30.52023043,-96.71628683,"OPEN"
"242","CHILLICOTHE HOSPITAL","CRITICAL ACCESS","OPEN",34.25475226,-99.51579603,"OPEN"
"243","GOODALL-WITCHER HOSPITAL","CRITICAL ACCESS","OPEN",31.77685263,-97.58892556,"OPEN"
"244","MITCHELL COUNTY HOSPITAL","CRITICAL ACCESS","OPEN",32.40643731,-100.8759346,"OPEN"
"245","CRANE MEMORIAL HOSPITAL","CRITICAL ACCESS","OPEN",31.38955285,-102.3499056,"OPEN"
"246","CROSBYTON CLINIC HOSPITAL","CRITICAL ACCESS","OPEN",33.66061882,-101.2461024,"OPEN"
"247","YOAKUM COUNTY HOSPITAL","CRITICAL ACCESS","OPEN",32.96857601,-102.8358621,"OPEN"
"248","RICE MEDICAL CENTER","CRITICAL ACCESS","OPEN",29.58775858,-96.3452847,"OPEN"
"249","CONCHO COUNTY HOSPITAL","CRITICAL ACCESS","OPEN",31.22129266,-99.84811412,"OPEN"
"250","JACKSON COUNTY HOSPITAL","CRITICAL ACCESS","OPEN",28.96910475,-96.63588688,"OPEN"
"251","SCHLEICHER COUNTY MEDICAL CENTER","CRITICAL ACCESS","OPEN",30.86300194,-100.6029941,"OPEN"
"252","ELECTRA MEMORIAL HOSPITAL","CRITICAL ACCESS","OPEN",34.01802681,-98.92489812,"OPEN"
"253","PARMER MEDICAL CENTER","CRITICAL ACCESS","OPEN",34.64427416,-102.7218242,"OPEN"
"254","CORYELL MEMORIAL HOSPITAL","CRITICAL ACCESS","OPEN",31.43513711,-97.77919934,"OPEN"
"255","JEWISH HOSPITAL SHELBYVILLE","GENERAL ACUTE CARE","OPEN",38.20902771,-85.23592218,"OPEN"
"256","THE MEDICAL CENTER AT FRANKLIN","GENERAL ACUTE CARE","OPEN",36.70001758,-86.57682839,"OPEN"
"257","TAYLOR REGIONAL HOSPITAL","GENERAL ACUTE CARE","OPEN",37.36635176,-85.33810656,"OPEN"
"258","HAMLIN MEMORIAL HOSPITAL","CRITICAL ACCESS","OPEN",32.88589548,-100.13516,"OPEN"
"259","HASKELL MEMORIAL HOSPITAL","CRITICAL ACCESS","OPEN",33.15736151,-99.74468102,"OPEN"
"260","SABINE COUNTY HOSPITAL","CRITICAL ACCESS","OPEN",31.33380873,-93.86296451,"OPEN"
"261","CLAY COUNTY MEMORIAL HOSPITAL","CRITICAL ACCESS","OPEN",33.81437269,-98.19848415,"OPEN"
"262","CHRISTUS MOTHER FRANCES HOSPITAL JACKSONVILLE","CRITICAL ACCESS","OPEN",31.93852592,-95.24777436,"OPEN"
"263","OTTO KAISER MEMORIAL HOSPITAL","CRITICAL ACCESS","OPEN",28.8506567,-97.87825546,"OPEN"
"264","WINKLER COUNTY MEMORIAL HOSPITAL","CRITICAL ACCESS","OPEN",31.84959206,-103.0905626,"OPEN"
"265","KNOX COUNTY HOSPITAL","CRITICAL ACCESS","OPEN",33.41380466,-99.81155305,"OPEN"
"266","ROLLINS BROOK COMMUNITY HOSPITAL","CRITICAL ACCESS","OPEN",31.0721863,-98.1862254,"OPEN"
"267","LIBERTY-DAYTON REGIONAL MEDICAL CENTER","CRITICAL ACCESS","OPEN",30.06882337,-94.79849135,"OPEN"
"268","W.J. MANGOLD MEMORIAL HOSPITAL","CRITICAL ACCESS","OPEN",34.12707748,-101.4412453,"OPEN"
"269","SETON EDGAR B DAVIS HOSPITAL","CRITICAL ACCESS","OPEN",29.67317456,-97.65449953,"OPEN"
"270","COCHRAN MEMORIAL HOSPITAL","CRITICAL ACCESS","OPEN",33.71973751,-102.7575223,"OPEN"
"271","FREDERICK MEMORIAL HOSPITAL","GENERAL ACUTE CARE","OPEN",39.42265668,-77.41466111,"OPEN"
"272","MEDSTAR FRANKLIN SQUARE MEDICAL CENTER","GENERAL ACUTE CARE","OPEN",39.3507894,-76.47990671,"OPEN"
"273","NORTHWEST HOSPITAL CENTER","GENERAL ACUTE CARE","OPEN",39.35859345,-76.78181096,"OPEN"
"274","SHEPPARD AND ENOCH PRATT HOSPITAL","PSYCHIATRIC","OPEN",39.39075299,-76.61942687,"OPEN"
"275","GREATER BALTIMORE MEDICAL CENTER","GENERAL ACUTE CARE","OPEN",39.39085636,-76.62455651,"OPEN"
"276","UNIVERSITY OF MARYLAND SAINT JOSEPH MEDICAL CENTER","GENERAL ACUTE CARE","OPEN",39.38805718,-76.61106352,"OPEN"
"277","SPRING GROVE HOSPITAL CENTER","PSYCHIATRIC","OPEN",39.2647555,-76.7225854,"OPEN"
"278","WESTERN MARYLAND REGIONAL MEDICAL CENTER","GENERAL ACUTE CARE","OPEN",39.64783067,-78.7332415,"OPEN"
"279","THOMAS B FINAN CENTER","PSYCHIATRIC","OPEN",39.65587346,-78.73606245,"OPEN"
"280","ANNE ARUNDEL MEDICAL CENTER","GENERAL ACUTE CARE","OPEN",38.98992672,-76.53461243,"OPEN"
"281","MUENSTER MEMORIAL HOSPITAL","CRITICAL ACCESS","OPEN",33.65395734,-97.38032336,"OPEN"
"282","PINCKNEYVILLE COMMUNITY HOSPITAL","CRITICAL ACCESS","OPEN",38.08106974,-89.38331938,"OPEN"
"283","KIRBY MEDICAL CENTER","CRITICAL ACCESS","OPEN",40.06044805,-88.5588217,"OPEN"
"284","GRIMES ST. JOSEPH HEALTH CENTER","CRITICAL ACCESS","OPEN",30.39244908,-96.07767218,"OPEN"
"285","ROCHELLE COMMUNITY HOSPITAL","CRITICAL ACCESS","OPEN",41.92831445,-89.06342974,"OPEN"
"286","GREATER PEORIA SPECIALTY HOSPITAL LLC - DBA KINDRED HOSPITAL PEORIA","LONG TERM CARE","OPEN",40.69288862,-89.60072965,"OPEN"
"287","PROCTOR HOSPITAL","GENERAL ACUTE CARE","OPEN",40.75296805,-89.59786556,"OPEN"
"288","SAINT FRANCIS MEDICAL CENTER","GENERAL ACUTE CARE","OPEN",40.70274682,-89.59196543,"OPEN"
"289","ILLINI COMMUNITY HOSPITAL","CRITICAL ACCESS","OPEN",39.60744348,-90.8151327,"OPEN"
"290","CALVERT MEMORIAL HOSPITAL","GENERAL ACUTE CARE","OPEN",38.55990681,-76.59627256,"OPEN"
"291","LECONTE MEDICAL CENTER","GENERAL ACUTE CARE","OPEN",35.85592321,-83.53521998,"OPEN"
"292","HEALTHSOUTH REHABILITATION HOSPITAL OF MEMPHIS","REHABILITATION","OPEN",35.13780022,-90.0191809,"OPEN"
"293","BAPTIST MEMORIAL HOSPITAL","GENERAL ACUTE CARE","OPEN",35.12952196,-89.86155885,"OPEN"
"294","VALIR REHABILITATION HOSPITAL OF OKC","REHABILITATION","OPEN",35.47489624,-97.52494158,"OPEN"
"295","MUSCOGEE (CREEK) NATION PHYSICAL REHABILITATION CENTER","REHABILITATION","OPEN",35.66753235,-95.96033181,"OPEN"
"296","ALEXIAN BROTHERS BEHAVIORAL HEALTH HOSPITAL","PSYCHIATRIC","OPEN",42.0540673,-88.13716781,"OPEN"
"297","AURORA CHICAGO LAKESHORE HOSPITAL  LLC - DBA AURORA CHICAGO LAKESHORE HOSPITAL","PSYCHIATRIC","OPEN",41.97029929,-87.65060003,"OPEN"
"298","BLESSING HOSPITAL","GENERAL ACUTE CARE","OPEN",39.93635888,-91.3994572,"OPEN"
"299","METHODIST MEDICAL CENTER OF ILLINOIS","GENERAL ACUTE CARE","OPEN",40.7003058,-89.59491684,"OPEN"
"300","HAMILTON HOSPITAL","CRITICAL ACCESS","OPEN",33.36936482,-98.76430459,"OPEN"
"301","PALACIOS COMMUNITY MEDICAL CENTER","CRITICAL ACCESS","OPEN",28.71692636,-96.21422746,"OPEN"
"302","EAST TEXAS MEDICAL CENTER PITTSBURG","CRITICAL ACCESS","OPEN",33.03304598,-94.95905399,"OPEN"
"303","FISHER COUNTY HOSPITAL DISTRICT","CRITICAL ACCESS","OPEN",32.83343986,-100.4360428,"OPEN"
"304","FRANCISCAN ALLIANCE  INC. - DBA FRANCISCAN ST. JAMES HEALTH-CHICAGO HEIGHTS","GENERAL ACUTE CARE","OPEN",41.50474151,-87.63984706,"OPEN"
"305","GLENBROOK HOSPITAL","GENERAL ACUTE CARE","OPEN",42.09253849,-87.85272133,"OPEN"
"306","SWEENY COMMUNITY HOSPITAL","CRITICAL ACCESS","OPEN",29.04783467,-95.69183141,"OPEN"
"307","LARABIDA CHILDREN S HOSPITAL","CHILDREN","OPEN",41.77729334,-87.57131243,"OPEN"
"308","LILLIAN M. HUDSPETH MEMORIAL HOSPITAL","CRITICAL ACCESS","OPEN",30.56340928,-100.6344359,"OPEN"
"309","REHABILITATION INSTITUTE OF CHICAGO","REHABILITATION","OPEN",41.89545454,-87.6183348,"OPEN"
"310","RIVEREDGE HOSPITAL","PSYCHIATRIC","OPEN",41.86489307,-87.82828251,"OPEN"
"311","RM HEALTH PROVIDERS LTD PARTNERSHIP - DBA RML SPECIALTY HOSPITAL","LONG TERM CARE","OPEN",41.78618532,-87.91530761,"OPEN"
"312","RML HEALTH PROVIDERS LIMITED PARTNERSHIP - DBA RML CHICAGO","LONG TERM CARE","OPEN",41.87494489,-87.71227205,"OPEN"
"313","LYNN COUNTY HOSPITAL DISTRICT","CRITICAL ACCESS","OPEN",33.16728156,-101.8161512,"OPEN"
"314","SCHWAB REHABILITATION CENTER","REHABILITATION","OPEN",41.86229676,-87.69531666,"OPEN"
"315","SHRINERS HOSPITAL FOR CHILDREN - CHICAGO","CHILDREN","OPEN",41.91983804,-87.79342252,"OPEN"
"316","THC CHICAGO  INC. - DBA KINDRED HOSPITAL - NORTHLAKE","LONG TERM CARE","OPEN",41.90690379,-87.89058977,"OPEN"
"317","THC CHICAGO  INC. - DBA KINDRED HOSPITAL - CENTRAL","LONG TERM CARE","OPEN",41.94024658,-87.72864369,"OPEN"
"318","UHS HARTGROVE HOSPITAL","PSYCHIATRIC","OPEN",41.86632953,-87.76746424,"OPEN"
"319","THROCKMORTON COUNTY MEMORIAL HOSPITAL","CRITICAL ACCESS","OPEN",33.18990414,-99.17664894,"OPEN"
"320","SWISHER MEMORIAL HOSPITAL","CRITICAL ACCESS","OPEN",34.53595958,-101.7556051,"OPEN"
"321","JESSE BROWN VA MEDICAL CENTER - VA CHICAGO HEALTHCARE SYSTEM","MILITARY","OPEN",41.87073782,-87.67704148,"OPEN"
"322","CULBERSON HOSPITAL","CRITICAL ACCESS","OPEN",31.04917326,-104.8275086,"OPEN"
"323","NORTHSHORE UNIVERSITY HEALTH SYSTEM SKOKIE HOSPITAL","GENERAL ACUTE CARE","OPEN",42.05641606,-87.74070961,"OPEN"
"324","COLLINGSWORTH GENERAL HOSPITAL","CRITICAL ACCESS","OPEN",34.84860058,-100.2121919,"OPEN"
"325","PALOS COMMUNITY HOSPITAL","GENERAL ACUTE CARE","OPEN",41.66921093,-87.813444,"OPEN"
"326","RUSH OAK PARK HOSPITAL","GENERAL ACUTE CARE","OPEN",41.87861801,-87.80335153,"OPEN"
"327","ADVENTIST LA GRANGE MEMORIAL HOSPITAL","GENERAL ACUTE CARE","OPEN",41.79706055,-87.88639493,"OPEN"
"328","ROSELAND COMMUNITY HOSPITAL","GENERAL ACUTE CARE","OPEN",41.69222644,-87.62535568,"OPEN"
"329","LOYOLA GOTTLIEB MEMORIAL HOSPITAL","GENERAL ACUTE CARE","OPEN",41.91052978,-87.84281507,"OPEN"
"330","WEST SUBURBAN MEDICAL CENTER","GENERAL ACUTE CARE","OPEN",41.8914014,-87.77617956,"OPEN"
"331","CHRISTUS MOTHER FRANCES HOSPITAL - WINNSBORO","CRITICAL ACCESS","OPEN",32.94453832,-95.30727963,"OPEN"
"332","YOAKUM COMMUNITY HOSPITAL","CRITICAL ACCESS","OPEN",29.30695852,-97.12915909,"OPEN"
"333","LORETTO HOSPITAL","GENERAL ACUTE CARE","OPEN",41.87212457,-87.76408865,"OPEN"
"334","THE UNIVERSITY OF CHICAGO MEDICAL CENTER","GENERAL ACUTE CARE","OPEN",41.78874685,-87.60433713,"OPEN"
"335","GOLDEN PLAINS COMMUNITY HOSPITAL","CRITICAL ACCESS","OPEN",35.65513819,-101.4091807,"OPEN"
"336","ST BERNARD HOSPITAL","GENERAL ACUTE CARE","OPEN",41.77839456,-87.63360134,"OPEN"
"337","SWEDISH COVENANT HOSPITAL","GENERAL ACUTE CARE","OPEN",41.97535155,-87.69946587,"OPEN"
"338","THOREK MEMORIAL HOSPITAL","GENERAL ACUTE CARE","OPEN",41.95518902,-87.65162124,"OPEN"
"339","RESURRECTION MEDICAL CENTER","GENERAL ACUTE CARE","OPEN",41.98750029,-87.81354582,"OPEN"
"340","LITTLE RIVER HEALTHCARE","CRITICAL ACCESS","OPEN",30.65097889,-97.02066652,"OPEN"
"341","RUSH UNIVERSITY MEDICAL CENTER","GENERAL ACUTE CARE","OPEN",41.87457186,-87.66890982,"OPEN"
"342","JOHN H STROGER JR HOSPITAL","GENERAL ACUTE CARE","OPEN",41.87233487,-87.67439846,"OPEN"
"343","HOLY CROSS HOSPITAL","GENERAL ACUTE CARE","OPEN",41.76940669,-87.69238033,"OPEN"
"344","EDWARD HINES| JR. VETERANS AFFAIRS HOSPITAL","MILITARY","OPEN",41.8610986,-87.84129591,"OPEN"
"345","UNIVERSITY OF ILLINOIS HOSPITAL","GENERAL ACUTE CARE","OPEN",41.86966877,-87.67051537,"OPEN"
"346","MARTIN COUNTY HOSPITAL DISTRICT","CRITICAL ACCESS","OPEN",32.13981746,-101.7875197,"OPEN"
"347","MERCY HOSPITAL AND MEDICAL CENTER","GENERAL ACUTE CARE","OPEN",41.84688958,-87.6214916,"OPEN"
"348","FRANCISCAN ST JAMES HEALTH","GENERAL ACUTE CARE","OPEN",41.52310929,-87.71135017,"OPEN"
"349","JACKSON PARK HOSPITAL","GENERAL ACUTE CARE","OPEN",41.75773061,-87.58523506,"OPEN"
"350","LITTLE COMPANY OF MARY HOSPITAL","GENERAL ACUTE CARE","OPEN",41.721465,-87.69302888,"OPEN"
"351","RANKIN COUNTY HOSPITAL DISTRICT","CRITICAL ACCESS","OPEN",31.23288787,-101.9353661,"OPEN"
"352","SOUTH SHORE HOSPITAL","GENERAL ACUTE CARE","OPEN",41.74932739,-87.56899688,"OPEN"
"353","ADVOCATE ILLINOIS MASONIC MEDICAL CENTER","GENERAL ACUTE CARE","OPEN",41.93674085,-87.65137166,"OPEN"
"354","INGALLS MEMORIAL HOSPITAL","GENERAL ACUTE CARE","OPEN",41.60737997,-87.65941817,"OPEN"
"355","METHODIST HOSPITAL OF CHICAGO","GENERAL ACUTE CARE","OPEN",41.97308677,-87.67074306,"OPEN"
"356","NORWEGIAN-AMERICAN HOSPITAL","GENERAL ACUTE CARE","OPEN",41.90079984,-87.69909548,"OPEN"
"357","ADVOCATE CHRIST HOSPITAL & MEDICAL CENTER","GENERAL ACUTE CARE","OPEN",41.72169452,-87.73244225,"OPEN"
"358","ADVOCATE LUTHERAN GENERAL HOSPITAL","GENERAL ACUTE CARE","OPEN",42.03880223,-87.84733438,"OPEN"
"359","ADVOCATE SOUTH SUBURBAN HOSPITAL","GENERAL ACUTE CARE","OPEN",41.56630404,-87.69756973,"OPEN"
"360","NORTHWEST COMMUNITY HOSPITAL","GENERAL ACUTE CARE","OPEN",42.06829111,-87.99218163,"OPEN"
"361","ALEXIAN BROTHERS MEDICAL CENTER","GENERAL ACUTE CARE","OPEN",42.00465682,-88.01689228,"OPEN"
"362","NORTHWESTERN MEMORIAL HOSPITAL","GENERAL ACUTE CARE","OPEN",41.89460771,-87.62102437,"OPEN"
"363","ST ALEXIUS MEDICAL CENTER","GENERAL ACUTE CARE","OPEN",42.05292846,-88.14103422,"OPEN"
"364","PROVIDENT HOSPITAL OF CHICAGO","GENERAL ACUTE CARE","OPEN",41.80267501,-87.61332387,"OPEN"
"365","LOYOLA UNIVERSITY MEDICAL CENTER","GENERAL ACUTE CARE","OPEN",41.86068278,-87.83472209,"OPEN"
"366","WESTLAKE COMMUNITY HOSPITAL","GENERAL ACUTE CARE","OPEN",41.89296012,-87.84849498,"OPEN"
"367","OAK FOREST HOSPITAL","GENERAL ACUTE CARE","CLOSED",41.5996574,-87.73410328,"OPEN"
"368","THC CHICAGO  INC. - DBA KINDRED HOSPITAL - SYCAMORE","LONG TERM CARE","OPEN",41.9829477,-88.68895879,"OPEN"
"369","KISHWAUKEE COMMUNITY HOSPITAL","GENERAL ACUTE CARE","OPEN",41.96139621,-88.72289155,"OPEN"
"370","DR JOHN WARNER HOSPITAL","CRITICAL ACCESS","OPEN",40.14841752,-88.96460821,"OPEN"
"371","GEORGETOWN COMMUNITY HOSPITAL","GENERAL ACUTE CARE","OPEN",38.18651851,-84.56091079,"OPEN"
"372","RUSSELL COUNTY HOSPITAL","GENERAL ACUTE CARE","OPEN",37.05758045,-85.06735281,"OPEN"
"373","ST. CLAIRE REGIONAL MEDICAL CENTER","GENERAL ACUTE CARE","OPEN",38.17947045,-83.43932425,"OPEN"
"374","SUMMERS COUNTY ARH HOSPITAL","CRITICAL ACCESS","OPEN",37.65063595,-80.86029453,"OPEN"
"375","ROANE GENERAL HOSPITAL","CRITICAL ACCESS","OPEN",38.81255478,-81.36903423,"OPEN"
"376","RALEIGH GENERAL HOSPITAL","GENERAL ACUTE CARE","OPEN",37.7875544,-81.20193159,"OPEN"
"377","CENTRAL STATE HOSPITAL","PSYCHIATRIC","OPEN",38.27219096,-85.55809622,"OPEN"
"378","ROCKCASTLE REGIONAL HOSPITAL & RESPIRATORY CARE CENTER","GENERAL ACUTE CARE","OPEN",37.35796432,-84.33590332,"OPEN"
"379","BAPTIST HOSPITAL LOUISVILLE","GENERAL ACUTE CARE","OPEN",38.23811825,-85.6371443,"OPEN"
"380","SAINT JOSEPH BEREA","CRITICAL ACCESS","OPEN",37.57609496,-84.28657055,"OPEN"
"381","MARSHALL COUNTY HOSPITAL","CRITICAL ACCESS","OPEN",36.86708362,-88.36979939,"OPEN"
"382","DAVIS MEMORIAL HOSPITAL","GENERAL ACUTE CARE","OPEN",38.92825591,-79.85480019,"OPEN"
"383","FRAZIER REHAB INSTITUTE","REHABILITATION","OPEN",38.24895576,-85.75021846,"OPEN"
"384","JEWISH HOSPITAL & ST. MARY S HEALTHCARE","GENERAL ACUTE CARE","OPEN",38.24913165,-85.7511895,"OPEN"
"385","KINDRED HOSPITAL - LOUISVILLE","LONG TERM CARE","OPEN",38.24265652,-85.73123773,"OPEN"
"386","NORTON AUDUBON HOSPITAL","GENERAL ACUTE CARE","OPEN",38.2151274,-85.72281365,"OPEN"
"387","NORTON BROWNSBORO HOSPITAL","GENERAL ACUTE CARE","OPEN",38.31532568,-85.57589445,"OPEN"
"388","NORTON HOSPITAL","GENERAL ACUTE CARE","OPEN",38.24772315,-85.7504603,"OPEN"
"389","CAMC GENERAL HOSPITAL","GENERAL ACUTE CARE","OPEN",38.34792179,-81.62719975,"OPEN"
"390","OUR LADY OF PEACE","PSYCHIATRIC","OPEN",38.218809,-85.71059213,"OPEN"
"391","HIGHLAND HOSPITAL","PSYCHIATRIC","OPEN",38.31507673,-81.56901926,"OPEN"
"392","CHARLESTON SURGICAL HOSPITAL","GENERAL ACUTE CARE","OPEN",38.34335473,-81.63005402,"OPEN"
"393","THE BROOK HOSPITAL - KMI","PSYCHIATRIC","OPEN",38.2725393,-85.59647878,"OPEN"
"394","UNIVERSITY OF LOUISVILLE HOSPITAL","GENERAL ACUTE CARE","OPEN",38.24832296,-85.74433596,"OPEN"
"395","THOMAS MEMORIAL HOSPITAL","GENERAL ACUTE CARE","OPEN",38.35486511,-81.72686652,"OPEN"
"396","NORTHKEY COMMUNITY CARE-INTENSIVE SERVICES","PSYCHIATRIC","OPEN",39.04960905,-84.5293474,"OPEN"
"397","SELECT SPECIALTY HOSPITAL","LONG TERM CARE","OPEN",38.35388293,-81.63252688,"OPEN"
"398","PAUL B HALL REGIONAL MEDICAL CENTER","GENERAL ACUTE CARE","OPEN",37.81551094,-82.8130513,"OPEN"
"399","ST FRANCIS HOSPITAL","GENERAL ACUTE CARE","OPEN",38.35346177,-81.63324072,"OPEN"
"400","JACKSON GENERAL HOSPITAL","CRITICAL ACCESS","OPEN",38.82287628,-81.73014727,"OPEN"
"401","JEFFERSON MEDICAL CENTER","CRITICAL ACCESS","OPEN",39.29598914,-77.85875906,"OPEN"
"402","UNITED HOSPITAL CENTER","GENERAL ACUTE CARE","OPEN",39.32831,-80.23946,"OPEN"
"403","HAMPSHIRE MEMORIAL HOSPITAL","CRITICAL ACCESS","OPEN",39.35095142,-78.75773594,"OPEN"
"404","GREENBRIER VALLEY MEDICAL CENTER","GENERAL ACUTE CARE","OPEN",37.77316067,-80.47024923,"OPEN"
"405","GRANT MEMORIAL HOSPITAL","CRITICAL ACCESS","OPEN",39.00141868,-79.13699714,"OPEN"
"406","MONTGOMERY GENERAL HOSPITAL","CRITICAL ACCESS","OPEN",38.18267304,-81.32439917,"OPEN"
"407","ST. ELIZABETH EDGEWOOD","GENERAL ACUTE CARE","OPEN",39.01317816,-84.56278972,"OPEN"
"408","ST. ELIZABETH COVINGTON","GENERAL ACUTE CARE","OPEN",39.07134837,-84.51799989,"OPEN"
"409","PLATEAU MEDICAL CENTER","CRITICAL ACCESS","OPEN",37.97127658,-81.14978059,"OPEN"
"410","MINNIE HAMILTON HEALTH CARE CENTER","CRITICAL ACCESS","OPEN",38.92276007,-81.09249296,"OPEN"
"411","CORNERSTONE HOSPITAL OF HUNTINGTON","LONG TERM CARE","OPEN",38.43191388,-82.40076965,"OPEN"
"412","HEALTHSOUTH REHABILITATION HOSPITAL OF HUNTINGTON","REHABILITATION","OPEN",38.41888909,-82.33866826,"OPEN"
"413","BRISTOL MYERS SQUIBB CHILDRENS HOSPITAL","CHILDREN","OPEN",40.49584506,-74.44888636,"OPEN"
"414","MILDRED MITCHELL-BATEMAN HOSPITAL","PSYCHIATRIC","OPEN",38.41276559,-82.41330097,"OPEN"
"415","RIVER PARK HOSPITAL","PSYCHIATRIC","OPEN",38.41959145,-82.4366994,"OPEN"
"416","ST MARY S MEDICAL CENTER","GENERAL ACUTE CARE","OPEN",38.43055045,-82.40041273,"OPEN"
"417","CABELL-HUNTINGTON HOSPITAL","GENERAL ACUTE CARE","OPEN",38.40976703,-82.4274023,"OPEN"
"418","HEALTHSOUTH MOUNTAINVIEW REGIONAL REHAB HOSPITAL","REHABILITATION","OPEN",39.65648602,-79.96198365,"OPEN"
"419","MONONGALIA COUNTY GENERAL HOSPITAL","GENERAL ACUTE CARE","OPEN",39.66361557,-79.94694373,"OPEN"
"420","UNION HOSPITAL OF CECIL COUNTY","GENERAL ACUTE CARE","OPEN",39.60854199,-75.83171748,"OPEN"
"421","WEST VIRGINIA UNIVERSITY HOSPITALS","GENERAL ACUTE CARE","OPEN",39.65442257,-79.95802214,"OPEN"
"422","SUMMERSVILLE REGIONAL MEDICAL CENTER","GENERAL ACUTE CARE","OPEN",38.2925122,-80.82929269,"OPEN"
"423","WAR MEMORIAL HOSPITAL","CRITICAL ACCESS","OPEN",39.64238269,-78.20037833,"OPEN"
"424","OHIO VALLEY MEDICAL CENTER","GENERAL ACUTE CARE","OPEN",40.06007458,-80.72168064,"OPEN"
"425","WHEELING HOSPITAL","GENERAL ACUTE CARE","OPEN",40.05911861,-80.68500734,"OPEN"
"426","PETERSON REHABILITATION HOSPITAL","REHABILITATION","OPEN",40.07988622,-80.69399837,"OPEN"
"427","WILLIAMSON MEMORIAL HOSPITAL","GENERAL ACUTE CARE","OPEN",37.67881896,-82.27264885,"OPEN"
"428","POTOMAC VALLEY HOSPITAL","CRITICAL ACCESS","OPEN",39.40950767,-79.00318076,"OPEN"
"429","BLUEFIELD REGIONAL MEDICAL CENTER","GENERAL ACUTE CARE","OPEN",37.25573232,-81.23550747,"OPEN"
"430","HEALTHSOUTH SOUTHERN HILLS REGIONAL REHAB","REHABILITATION","OPEN",37.36396619,-81.11352907,"OPEN"
"431","PRINCETON COMMUNITY HOSPITAL","GENERAL ACUTE CARE","OPEN",37.36271893,-81.11301085,"OPEN"
"432","PLEASANT VALLEY HOSPITAL","GENERAL ACUTE CARE","OPEN",38.86906541,-82.12322387,"OPEN"
"433","REYNOLDS MEMORIAL HOSPITAL","GENERAL ACUTE CARE","OPEN",39.94614193,-80.75243755,"OPEN"
"434","BOONE MEMORIAL HOSPITAL","CRITICAL ACCESS","OPEN",38.0482,-81.80619,"OPEN"
"435","BRAXTON COUNTY MEMORIAL HOSPITAL","CRITICAL ACCESS","OPEN",38.66115929,-80.74860807,"OPEN"
"436","BROADDUS HOSPITAL ASSOCIATION","CRITICAL ACCESS","OPEN",39.15394107,-80.04095457,"OPEN"
"437","BERKELEY MEDICAL CENTER","GENERAL ACUTE CARE","OPEN",39.47624347,-77.98023718,"OPEN"
"438","WEIRTON MEDICAL CENTER","GENERAL ACUTE CARE","OPEN",40.39309518,-80.52789166,"OPEN"
"439","CAMDEN CLARK MEDICAL CENTER","GENERAL ACUTE CARE","OPEN",39.26942401,-81.56010635,"OPEN"
"440","HEALTHSOUTH WESTERN HILLS REGIONAL REHAB HOSPITAL","REHABILITATION","OPEN",39.30559096,-81.53435122,"OPEN"
"441","WEBSTER COUNTY MEMORIAL HOSPITAL","CRITICAL ACCESS","OPEN",38.48226133,-80.41068752,"OPEN"
"442","WETZEL COUNTY HOSPITAL","GENERAL ACUTE CARE","OPEN",39.68112864,-80.85003262,"OPEN"
"443","POCAHONTAS MEMORIAL HOSPITAL","CRITICAL ACCESS","OPEN",38.20082912,-80.1089784,"OPEN"
"444","PRESTON MEMORIAL HOSPITAL","CRITICAL ACCESS","CLOSED",39.46507784,-79.6878575,"OPEN"
"445","CAMC TEAYS VALLEY HOSPITAL","GENERAL ACUTE CARE","OPEN",38.45168556,-81.95210286,"OPEN"
"446","STONEWALL JACKSON MEMORIAL HOSPITAL","GENERAL ACUTE CARE","OPEN",39.04763994,-80.492092,"OPEN"
"447","WILLIAM R SHARPE JR HOSPITAL","PSYCHIATRIC","OPEN",39.04114927,-80.49630427,"OPEN"
"448","LOGAN REGIONAL MEDICAL CENTER","GENERAL ACUTE CARE","OPEN",37.84609551,-81.99438703,"OPEN"
"449","WELCH COMMUNITY HOSPITAL","GENERAL ACUTE CARE","OPEN",37.43912905,-81.58809901,"OPEN"
"450","GRAFTON CITY HOSPITAL","CRITICAL ACCESS","OPEN",39.34378513,-80.02521735,"OPEN"
"451","ST JOSEPH HOSPITAL","CRITICAL ACCESS","OPEN",38.99141205,-80.2363893,"OPEN"
"452","SISTERSVILLE GENERAL HOSPITAL","CRITICAL ACCESS","OPEN",39.55860031,-81.00404988,"OPEN"
"453","HIGHLAND-CLARKSBURG HOSPITAL INC","PSYCHIATRIC","OPEN",39.2717754,-80.37143889,"OPEN"
"454","ACUITY SPECIALTY HOSPITAL OHIO VALLEY WEIRTON","LONG TERM CARE","OPEN",40.39325519,-80.52789795,"OPEN"
"455","VA MEDICAL CENTER - BECKLEY","MILITARY","OPEN",37.76496548,-81.19320077,"OPEN"
"456","LOUIS A. JOHNSON VA MEDICAL CENTER","MILITARY","OPEN",39.26973412,-80.36212141,"OPEN"
"457","VA MEDICAL CENTER - HUNTINGTON","MILITARY","OPEN",38.37688048,-82.51641474,"OPEN"
"458","VA MEDICAL CENTER - MARTINSBURG","MILITARY","OPEN",39.41771145,-77.91111267,"OPEN"
"459","CAMC MEMORIAL HOSPITAL","GENERAL ACUTE CARE","OPEN",38.32972614,-81.6029486,"OPEN"
"460","PRESTON MEMORIAL HOSPITAL","CRITICAL ACCESS","OPEN",39.46495411,-79.67751161,"OPEN"
"461","CAMC WOMEN AND CHILDREN S HOSPITAL","WOMEN","OPEN",38.35905561,-81.63804068,"OPEN"
"462","ST ANTHONYS MEMORIAL HOSPITAL","GENERAL ACUTE CARE","OPEN",39.12577602,-88.55012522,"OPEN"
"463","MEADOWVIEW REGIONAL MEDICAL CENTER","GENERAL ACUTE CARE","OPEN",38.63997438,-83.80810517,"OPEN"
"464","KINGS DAUGHTERS MEDICAL CENTER","GENERAL ACUTE CARE","OPEN",38.46994141,-82.63451633,"OPEN"
"465","BOURBON COMMUNITY HOSPITAL","GENERAL ACUTE CARE","OPEN",38.22119391,-84.23835241,"OPEN"
"466","GATEWAY REHABILITATION HOSPITAL AT FLORENCE","REHABILITATION","OPEN",39.0080404,-84.65513922,"OPEN"
"467","ST. ELIZABETH FLORENCE","GENERAL ACUTE CARE","OPEN",39.01659182,-84.63076721,"OPEN"
"468","MIDDLESBORO ARH HOSPITAL","GENERAL ACUTE CARE","OPEN",36.60582647,-83.74019273,"OPEN"
"469","PINEVILLE COMMUNITY HOSPITAL","GENERAL ACUTE CARE","OPEN",36.76291694,-83.70776873,"OPEN"
"470","TOUCHETTE REGIONAL HOSPITAL INC","GENERAL ACUTE CARE","OPEN",38.57014999,-90.10848249,"OPEN"
"471","MEMORIAL HOSPITAL","GENERAL ACUTE CARE","OPEN",38.54981849,-90.02161656,"OPEN"
"472","ST ELIZABETH HOSPITAL","GENERAL ACUTE CARE","OPEN",38.51112044,-89.98916398,"OPEN"
"473","GENESIS MEDICAL CENTER ILLINI CAMPUS","GENERAL ACUTE CARE","OPEN",41.49432574,-90.41841611,"OPEN"
"474","TRINITY ROCK ISLAND","GENERAL ACUTE CARE","OPEN",41.48261527,-90.57041813,"OPEN"
"475","ST JOHNS HOSPITAL","GENERAL ACUTE CARE","OPEN",39.80543902,-89.64400804,"OPEN"
"476","MEMORIAL MEDICAL CENTER","GENERAL ACUTE CARE","OPEN",39.80936884,-89.6557791,"OPEN"
"477","HARRISBURG MEDICAL CENTER","GENERAL ACUTE CARE","OPEN",37.73104361,-88.52313398,"OPEN"
"478","THE PAVILION FOUNDATION","PSYCHIATRIC","OPEN",40.11770771,-88.25753674,"OPEN"
"479","PRESENCE COVENANT MEDICAL CENTER","GENERAL ACUTE CARE","OPEN",40.11797111,-88.22710726,"OPEN"
"480","ST MARGARETS HOSPITAL","GENERAL ACUTE CARE","OPEN",41.32874283,-89.19311721,"OPEN"
"481","PORTER MEDICAL CENTER  INC.","CRITICAL ACCESS","OPEN",44.00043082,-73.16824244,"OPEN"
"482","EPHRAIM MCDOWELL REGIONAL MEDICAL CENTER","GENERAL ACUTE CARE","OPEN",37.64387331,-84.77300114,"OPEN"
"483","KENTUCKY RIVER MEDICAL CENTER","GENERAL ACUTE CARE","OPEN",37.56588727,-83.36962064,"OPEN"
"484","BLESSING HOSPITAL AT 14TH STREET","GENERAL ACUTE CARE","CLOSED",39.93509367,-91.39140391,"OPEN"
"485","THE CARLE FOUNDATION HOSPITAL","GENERAL ACUTE CARE","OPEN",40.11704176,-88.21494866,"OPEN"
"486","BRECKINRIDGE MEMORIAL HOSPITAL","CRITICAL ACCESS","OPEN",37.76657014,-86.44039045,"OPEN"
"487","GREENVILLE REGIONAL HOSPITAL","GENERAL ACUTE CARE","OPEN",38.90320971,-89.40764482,"OPEN"
"488","SWEDISHAMERICAN MEDICAL CENTER BELVIDERE","GENERAL ACUTE CARE","OPEN",42.24301226,-88.8397451,"OPEN"
"489","FHN MEMORIAL HOSPITAL","GENERAL ACUTE CARE","OPEN",42.29577656,-89.63834584,"OPEN"
"490","SHELBY MEMORIAL HOSPITAL","GENERAL ACUTE CARE","OPEN",39.40578183,-88.80795064,"OPEN"
"491","PEKIN MEMORIAL HOSPITAL","GENERAL ACUTE CARE","OPEN",40.5631286,-89.63247285,"OPEN"
"492","LOGAN MEMORIAL HOSPITAL","GENERAL ACUTE CARE","OPEN",36.81571001,-86.88150163,"OPEN"
"493","LOURDES HOSPITAL","GENERAL ACUTE CARE","OPEN",37.05063902,-88.64736896,"OPEN"
"494","MURRAY CALLOWAY COUNTY HOSPITAL","GENERAL ACUTE CARE","OPEN",36.60688891,-88.3099939,"OPEN"
"495","ST. ELIZABETH FT. THOMAS","GENERAL ACUTE CARE","OPEN",39.07866072,-84.46767751,"OPEN"
"496","BAPTIST HEALTH PADUCAH","GENERAL ACUTE CARE","OPEN",37.07375938,-88.62659719,"OPEN"
"497","SPRING VIEW HOSPITAL","GENERAL ACUTE CARE","OPEN",37.56982888,-85.26145641,"OPEN"
"498","MONROE COUNTY MEDICAL CENTER","GENERAL ACUTE CARE","OPEN",36.6988825,-85.67646626,"OPEN"
"499","SAINT JOSEPH MOUNT STERLING","GENERAL ACUTE CARE","OPEN",38.07712125,-83.9452558,"OPEN"
"500","MUHLENBERG COMMUNITY HOSPITAL","GENERAL ACUTE CARE","OPEN",37.19653539,-87.1892945,"OPEN"
"501","CALDWELL MEDICAL CENTER","CRITICAL ACCESS","OPEN",37.11367431,-87.90960048,"OPEN"
"502","T J SAMSON COMMUNITY HOSPITAL","GENERAL ACUTE CARE","OPEN",37.01139239,-85.90451397,"OPEN"
"503","FLAGET MEMORIAL HOSPITAL","GENERAL ACUTE CARE","OPEN",37.86165102,-85.52378583,"OPEN"
"504","RICHLAND MEMORIAL HOSPITAL","GENERAL ACUTE CARE","OPEN",38.73654357,-88.07717289,"OPEN"
"505","MORGAN COUNTY ARH HOSPITAL","CRITICAL ACCESS","OPEN",37.92003314,-83.26557551,"OPEN"
"506","SARAH BUSH LINCOLN HEALTH CENTER","GENERAL ACUTE CARE","OPEN",39.48854118,-88.27310864,"OPEN"
"507","ST. LUKE S HOSPITAL - WARREN CAMPUS","GENERAL ACUTE CARE","OPEN",40.70220506,-75.17812041,"OPEN"
"508","HACKETTSTOWN REGIONAL MEDICAL CENTER","GENERAL ACUTE CARE","OPEN",40.8616841,-74.81600774,"OPEN"
"509","LITTLE HILL ALINA LODGE","SPECIAL","OPEN",40.98150956,-74.93182335,"OPEN"
"510","PUSHMATAHA COUNTY-TOWN OF ANTLERS HOSPITAL AUTHORITY","GENERAL ACUTE CARE","OPEN",34.23123227,-95.61473884,"OPEN"
"511","MCALESTER REGIONAL HEALTH CENTER","GENERAL ACUTE CARE","OPEN",34.93688174,-95.75092529,"OPEN"
"512","ROLLING HILLS HOSPITAL","PSYCHIATRIC","OPEN",34.78459567,-96.62745078,"OPEN"
"513","EPIC MEDICAL CENTER","GENERAL ACUTE CARE","OPEN",35.3109667,-95.59181607,"CLOSED"
"514","FAIRVIEW REGIONAL MEDICAL CENTER","CRITICAL ACCESS","OPEN",36.27598778,-98.47452341,"OPEN"
"515","ALLIANCEHEALTH PRYOR","GENERAL ACUTE CARE","OPEN",36.30828875,-95.30479667,"OPEN"
"516","LATIMER COUNTY GENERAL HOSPITAL","GENERAL ACUTE CARE","OPEN",34.91947628,-95.32085573,"OPEN"
"517","ELKVIEW GENERAL HOSPITAL","GENERAL ACUTE CARE","OPEN",35.03777613,-99.09860687,"OPEN"
"518","ALLIANCEHEALTH BLACKWELL","GENERAL ACUTE CARE","OPEN",36.79803793,-97.29998674,"OPEN"
"519","ALLIANCEHEALTH PONCA CITY","GENERAL ACUTE CARE","OPEN",36.72465909,-97.06835684,"OPEN"
"520","EASTERN OKLAHOMA MEDICAL CENTER","GENERAL ACUTE CARE","OPEN",35.0433335,-94.61213288,"OPEN"
"521","EDMOND -AMG SPECIALTY HOSPITAL","LONG TERM CARE","OPEN",35.64484388,-97.46539263,"OPEN"
"522","KATHERINE SHAW BETHEA HOSPITAL","GENERAL ACUTE CARE","OPEN",41.84477843,-89.47889512,"OPEN"
"523","SAINT JAMES HOSPITAL","GENERAL ACUTE CARE","OPEN",40.87099748,-88.67951509,"OPEN"
"524","MC DONOUGH DISTRICT HOSPITAL","GENERAL ACUTE CARE","OPEN",40.44716561,-90.66440647,"OPEN"
"525","KINDRED HOSPITAL -OKLAHOMA CITY","GENERAL ACUTE CARE","OPEN",35.48280596,-97.51627313,"OPEN"
"526","LAKESIDE WOMEN S HOSPITAL","GENERAL ACUTE CARE","OPEN",35.58394229,-97.58361293,"OPEN"
"527","MCBRIDE ORTHOPEDIC HOSPITAL","SPECIAL","OPEN",35.56823049,-97.51175573,"OPEN"
"528","ALLIANCEHEALTH DEACONESS","GENERAL ACUTE CARE","OPEN",35.52690674,-97.58413106,"OPEN"
"529","ALLIANCEHEALTH MIDWEST","GENERAL ACUTE CARE","OPEN",35.46674418,-97.39394091,"OPEN"
"530","INTEGRIS BAPTIST MEDICAL CENTER  INC.","GENERAL ACUTE CARE","OPEN",35.52937914,-97.57613488,"OPEN"
"531","NORTHWEST SURGICAL HOSPITAL","SPECIAL","OPEN",35.56409354,-97.56672459,"OPEN"
"532","OKLAHOMA SPINE HOSPITAL  LLC","SPECIAL","OPEN",35.61450132,-97.5833,"OPEN"
"533","INTEGRIS HEALTH EDMOND","GENERAL ACUTE CARE","OPEN",35.64463527,-97.41836003,"OPEN"
"534","INTEGRIS SOUTHWEST MEDICAL CENTER","GENERAL ACUTE CARE","OPEN",35.42134346,-97.53377249,"OPEN"
"535","MERCY HOSPITAL OKLAHOMA CITY  INC.","GENERAL ACUTE CARE","OPEN",35.60677594,-97.59942789,"OPEN"
"536","OKLAHOMA CENTER FOR ORTHOPAEDIC & MULTI-SPECIALTY","SPECIAL","OPEN",35.38522663,-97.5189761,"OPEN"
"537","MASON DISTRICT HOSPITAL","CRITICAL ACCESS","OPEN",40.30542314,-90.0540907,"OPEN"
"538","ST MARYS HOSPITAL","GENERAL ACUTE CARE","OPEN",38.53028143,-89.11720631,"OPEN"
"539","CUMBERLAND HALL HOSPITAL","PSYCHIATRIC","OPEN",36.73825166,-87.46840333,"OPEN"
"540","JENNIE STUART MEDICAL CENTER","GENERAL ACUTE CARE","OPEN",36.86118712,-87.49495125,"OPEN"
"541","WESTERN STATE HOSPITAL","PSYCHIATRIC","OPEN",36.86466922,-87.45126672,"OPEN"
"542","CARROLL COUNTY MEMORIAL HOSPITAL","CRITICAL ACCESS","OPEN",38.68031234,-85.1687861,"OPEN"
"543","PIKEVILLE MEDICAL CENTER","GENERAL ACUTE CARE","OPEN",37.47124167,-82.5222475,"OPEN"
"544","LAKE CUMBERLAND REGIONAL HOSPITAL","GENERAL ACUTE CARE","OPEN",37.08600628,-84.62017705,"OPEN"
"545","OKLAHOMA HEART HOSPITAL","SPECIAL","OPEN",35.60796726,-97.59705363,"OPEN"
"546","SELECT SPECIALTY HOSPITAL -OKLAHOMA CITY","LONG TERM CARE","OPEN",35.52775685,-97.58061429,"OPEN"
"547","OU MEDICAL CENTER -THE CHILDREN S HOSPITAL","CHILDREN","OPEN",35.48165324,-97.49610501,"OPEN"
"548","ST. ANTHONY HOSPITAL","GENERAL ACUTE CARE","OPEN",35.4779097,-97.52342971,"OPEN"
"549","CLARK REGIONAL MEDICAL CENTER","GENERAL ACUTE CARE","OPEN",38.00104322,-84.19551586,"OPEN"
"550","SPECIALTY HOSPITAL OF MIDWEST CITY","LONG TERM CARE","OPEN",35.46693029,-97.38682921,"OPEN"
"551","HAZARD ARH REGIONAL MEDICAL CENTER","GENERAL ACUTE CARE","OPEN",37.27829795,-83.22788224,"OPEN"
"552","SURGICAL HOSPITAL OF OKLAHOMA","GENERAL ACUTE CARE","OPEN",35.40567403,-97.50933012,"OPEN"
"553","SUMMIT MEDICAL CENTER  LLC","SPECIAL","OPEN",35.63507163,-97.49977105,"OPEN"
"554","THE CHILDREN S CENTER","CHILDREN","OPEN",35.51043963,-97.6333639,"OPEN"
"555","TUG VALLEY ARH REGIONAL MEDICAL CENTER","GENERAL ACUTE CARE","OPEN",37.67651064,-82.29702272,"OPEN"
"556","CEDAR RIDGE","PSYCHIATRIC","OPEN",35.52293278,-97.41193749,"OPEN"
"557","ST JOSEPH MEDICAL CENTER","GENERAL ACUTE CARE","OPEN",40.48267659,-88.9555622,"OPEN"
"558","MERCY REHABILITATION HOSPITAL OKLAHOMA CITY","REHABILITATION","OPEN",35.61077805,-97.61509191,"OPEN"
"559","COMMUNITY MEMORIAL HOSPITAL","CRITICAL ACCESS","OPEN",39.01528071,-89.78938694,"OPEN"
"560","DECATUR MEMORIAL HOSPITAL","GENERAL ACUTE CARE","OPEN",39.8672534,-88.96098295,"OPEN"
"561","ST MARYS HOSPITAL","GENERAL ACUTE CARE","OPEN",39.82745295,-88.93168263,"OPEN"
"562","ALTON MEMORIAL HOSPITAL","GENERAL ACUTE CARE","OPEN",38.89958432,-90.15914964,"OPEN"
"563","SAINT ANTHONY S HEALTH CENTER","GENERAL ACUTE CARE","OPEN",38.90799588,-90.17329338,"OPEN"
"564","ONECORE HEALTH","SPECIAL","OPEN",35.42037463,-97.53425265,"OPEN"
"565","ANDERSON HOSPITAL","GENERAL ACUTE CARE","OPEN",38.73677058,-89.94670768,"OPEN"
"566","CENTEGRA HEALTH SYSTEM - MC HENRY HOSPITAL","GENERAL ACUTE CARE","OPEN",42.31779814,-88.279468,"OPEN"
"567","BROMENN HEALTHCARE","GENERAL ACUTE CARE","OPEN",40.49697098,-88.99085,"OPEN"
"568","CENTEGRA HEALTH SYSTEM - WOODSTOCK HOSPITAL","GENERAL ACUTE CARE","OPEN",42.27559742,-88.40080442,"OPEN"
"569","UNIVERSITY OF MD SHORE MEDICAL CENTER AT EASTON","GENERAL ACUTE CARE","OPEN",38.76965106,-76.07685606,"OPEN"
"570","HUGGINS HOSPITAL","GENERAL ACUTE CARE","OPEN",43.58173942,-71.2003641,"OPEN"
"571","MEMORIAL HOSPITAL","GENERAL ACUTE CARE","OPEN",44.06181269,-71.1368538,"OPEN"
"572","CHESHIRE MEDICAL CENTER","GENERAL ACUTE CARE","OPEN",42.9488432,-72.2919009,"OPEN"
"573","SPEARE MEMORIAL HOSPITAL","GENERAL ACUTE CARE","OPEN",43.75773763,-71.69518793,"OPEN"
"574","COTTAGE HOSPITAL","GENERAL ACUTE CARE","OPEN",44.13533816,-72.02342639,"OPEN"
"575","LITTLETON REGIONAL HEALTHCARE","GENERAL ACUTE CARE","OPEN",44.31793388,-71.82555904,"OPEN"
"576","ALICE PECK DAY MEMORIAL HOSPITAL","GENERAL ACUTE CARE","OPEN",43.63844773,-72.28600257,"OPEN"
"577","EASTAR HEALTH SYSTEM  MAIN CAMPUS","GENERAL ACUTE CARE","OPEN",35.75246381,-95.40615256,"OPEN"
"578","EASTAR EAST CAMPUS","GENERAL ACUTE CARE","OPEN",35.78257951,-95.35625691,"CLOSED"
"579","INTEGRIS GROVE HOSPITAL","GENERAL ACUTE CARE","OPEN",36.58128735,-94.75857669,"OPEN"
"580","LAKES REGION GENERAL HOSPITAL","GENERAL ACUTE CARE","OPEN",43.52855555,-71.46318101,"OPEN"
"581","CRITTENDEN COUNTY HOSPITAL","GENERAL ACUTE CARE","OPEN",37.32921123,-88.09257544,"OPEN"
"582","OWENSBORO HEALTH REGIONAL HOSPITAL","GENERAL ACUTE CARE","OPEN",37.76579187,-87.10232861,"OPEN"
"583","INTEGRIS BASS PAVILION","GENERAL ACUTE CARE","OPEN",36.39263246,-97.87408924,"OPEN"
"584","RIVER VALLEY BEHAVIORAL HEALTH","PSYCHIATRIC","OPEN",37.78486692,-87.15764357,"OPEN"
"585","ADVENTIST BEHAVIORAL HEALTH EASTERN SHORE","PSYCHIATRIC","OPEN",38.54945363,-76.05799123,"OPEN"
"586","INTEGRIS BASS BAPTIST HEALTH CENTER","GENERAL ACUTE CARE","OPEN",36.39016529,-97.88742558,"OPEN"
"587","CARROLL HOSPITAL CENTER","GENERAL ACUTE CARE","OPEN",39.55814603,-76.99072013,"OPEN"
"588","SPRINGFIELD HOSPITAL CENTER","PSYCHIATRIC","OPEN",39.38135936,-76.95845439,"OPEN"
"589","NEWMAN MEMORIAL HOSPITAL","GENERAL ACUTE CARE","OPEN",36.2680035,-99.88202277,"OPEN"
"590","KENTUCKY CORRECTIONAL PSYCHIATRIC CENTER","PSYCHIATRIC","OPEN",38.41207679,-85.42212673,"OPEN"
"591","LINDSAY MUNICIPAL HOSPITAL","GENERAL ACUTE CARE","OPEN",34.83899678,-97.62624442,"OPEN"
"592","PAULS VALLEY GENERAL HOSPITAL","GENERAL ACUTE CARE","OPEN",34.71940441,-97.21478864,"OPEN"
"593","MCCURTAIN MEMORIAL HOSPITAL","GENERAL ACUTE CARE","OPEN",33.88282828,-94.81116176,"OPEN"
"594","PURCELL MUNICIPAL HOSPITAL","GENERAL ACUTE CARE","OPEN",35.02860056,-97.3646217,"OPEN"
"595","MERCY HEALTH -LOVE COUNTY","CRITICAL ACCESS","OPEN",33.94304119,-97.13090878,"OPEN"
"596","UNIVERSITY OF MD SHORE MEDICAL CTR AT DORCHESTER","GENERAL ACUTE CARE","OPEN",38.57170558,-76.0674582,"OPEN"
"597","MERCY HOSPITAL LOGAN COUNTY","CRITICAL ACCESS","OPEN",35.87633071,-97.46202636,"OPEN"
"598","PRAGUE COMMUNITY HOSPITAL","CRITICAL ACCESS","OPEN",35.49014466,-96.68431257,"OPEN"
"599","STROUD REGIONAL MEDICAL CENTER","CRITICAL ACCESS","OPEN",35.74848483,-96.68334576,"OPEN"
"600","JACKSON COUNTY MEMORIAL HOSPITAL","GENERAL ACUTE CARE","OPEN",34.63523975,-99.31803877,"OPEN"
"601","JEFFERSON COUNTY HOSPITAL","CRITICAL ACCESS","OPEN",34.15731246,-97.97951529,"OPEN"
"602","HASKELL COUNTY COMMUNITY HOSPITAL","CRITICAL ACCESS","OPEN",35.26116507,-95.12875158,"OPEN"
"603","MARIANJOY REHABILITATION CENTER","REHABILITATION","OPEN",41.85251702,-88.13760059,"OPEN"
"604","ADVENTIST HINSDALE HOSPITAL","GENERAL ACUTE CARE","OPEN",41.80591716,-87.92122132,"OPEN"
"605","ELMHURST MEMORIAL HOSPITAL","GENERAL ACUTE CARE","OPEN",41.86376199,-87.93557914,"OPEN"
"606","EDWARD HOSPITAL","GENERAL ACUTE CARE","OPEN",41.76096564,-88.14998473,"OPEN"
"607","CENTRAL DUPAGE HOSPITAL","GENERAL ACUTE CARE","OPEN",41.87352056,-88.1557587,"OPEN"
"608","HOLDENVILLE GENERAL HOSPITAL","CRITICAL ACCESS","OPEN",35.08905917,-96.37859604,"OPEN"
"609","ADVENTIST GLENOAKS","GENERAL ACUTE CARE","OPEN",41.9148249,-88.05697653,"OPEN"
"610","ATLANTIC GENERAL HOSPITAL","GENERAL ACUTE CARE","OPEN",38.33952516,-75.21133309,"OPEN"
"611","MERCY HOSPITAL TISHOMINGO  INC","CRITICAL ACCESS","OPEN",34.22256466,-96.67478091,"OPEN"
"612","QUARTZ MOUNTAIN MEDICAL CENTER","CRITICAL ACCESS","OPEN",34.89236096,-99.50111111,"OPEN"
"613","HARMON MEMORIAL HOSPITAL","GENERAL ACUTE CARE","OPEN",34.69220952,-99.91428905,"OPEN"
"614","GRADY MEMORIAL HOSPITAL","GENERAL ACUTE CARE","OPEN",35.04803417,-97.96173288,"OPEN"
"615","NORTHWESTERN MEDICAL CENTER","GENERAL ACUTE CARE","OPEN",44.80773962,-73.07251309,"OPEN"
"616","SHARE MEMORIAL HOSPITAL","GENERAL ACUTE CARE","OPEN",36.7872206,-98.67122175,"OPEN"
"617","ALLIANCEHEALTH WOODWARD","GENERAL ACUTE CARE","OPEN",36.43739791,-99.40033722,"OPEN"
"618","NORTHWEST CENTER FOR BEHAVIORAL HEALTH (NCBH)","PSYCHIATRIC","OPEN",36.56903399,-99.57435821,"OPEN"
"619","CREEK NATION COMMUNITY HOSPITAL","CRITICAL ACCESS","OPEN",35.4339077,-96.31820351,"OPEN"
"620","JANE PHILLIPS NOWATA HEALTH CENTER","CRITICAL ACCESS","OPEN",36.69668544,-95.6302812,"OPEN"
"621","PERRY MEMORIAL HOSPITAL","GENERAL ACUTE CARE","OPEN",36.28839268,-97.29949511,"OPEN"
"622","ALLIANCEHEALTH CLINTON","GENERAL ACUTE CARE","OPEN",35.51470827,-98.9977696,"OPEN"
"623","WEATHERFORD REGIONAL HOSPITAL","CRITICAL ACCESS","OPEN",35.53927687,-98.66230163,"OPEN"
"624","COMANCHE COUNTY MEMORIAL HOSPITAL","GENERAL ACUTE CARE","OPEN",34.60978544,-98.43426071,"OPEN"
"625","SOUTHWESTERN MEDICAL CENTER","GENERAL ACUTE CARE","OPEN",34.59263525,-98.46274019,"OPEN"
"626","JIM TALIAFERRO COMMUNITY MENTAL HEALTH CENTER","PSYCHIATRIC","OPEN",34.60310119,-98.43861928,"OPEN"
"627","BRISTOW MEDICAL CENTER","GENERAL ACUTE CARE","OPEN",35.83402589,-96.40143787,"OPEN"
"628","DRUMRIGHT REGIONAL HOSPITAL","CRITICAL ACCESS","OPEN",35.99810679,-96.60596661,"OPEN"
"629","ST. JOHN SAPULPA  INC.","CRITICAL ACCESS","OPEN",35.99301234,-96.10008719,"OPEN"
"630","CRAIG GENERAL HOSPITAL","GENERAL ACUTE CARE","OPEN",36.6534086,-95.15629396,"OPEN"
"631","COMMUNITY MEMORIAL HOSPITAL","CRITICAL ACCESS","OPEN",44.87156665,-98.52092234,"OPEN"
"632","HILLCREST HOSPITAL CUSHING","GENERAL ACUTE CARE","OPEN",35.97867106,-96.75674697,"OPEN"
"633","STILLWATER MEDICAL CENTER","GENERAL ACUTE CARE","OPEN",36.1150111,-97.07510207,"OPEN"
"634","INTEGRIS MIAMI HOSPITAL","GENERAL ACUTE CARE","OPEN",36.87267047,-94.88017941,"OPEN"
"635","NORTH COUNTRY HOSPITAL & HEALTH CENTER","CRITICAL ACCESS","OPEN",44.95580257,-72.20108185,"OPEN"
"636","WILLOW CREST HOSPITAL","PSYCHIATRIC","OPEN",36.87247948,-94.8790573,"OPEN"
"637","CLEVELAND AREA HOSPITAL","CRITICAL ACCESS","OPEN",36.30932452,-96.48174236,"OPEN"
"638","MUSCOGEE (CREEK) NATION LONG TERM ACUTE CARE HOSPITAL","LONG TERM CARE","OPEN",35.66728251,-95.96034371,"OPEN"
"639","FAIRFAX COMMUNITY HOSPITAL","CRITICAL ACCESS","OPEN",36.56332062,-96.70703409,"OPEN"
"640","PAWHUSKA HOSPITAL  INC.","CRITICAL ACCESS","OPEN",36.67350648,-96.32551274,"OPEN"
"641","CHOCTAW MEMORIAL HOSPITAL","GENERAL ACUTE CARE","OPEN",34.0123721,-95.49665009,"OPEN"
"642","LANE FROST HEALTH AND REHABILITATION CENTER","REHABILITATION","OPEN",34.0024267,-95.48119817,"OPEN"
"643","CIMARRON MEMORIAL HOSPITAL","CRITICAL ACCESS","OPEN",36.72867274,-102.5180648,"OPEN"
"644","COMMUNITY HOSPITAL","GENERAL ACUTE CARE","OPEN",35.37591091,-97.57053353,"OPEN"
"645","NORMAN SPECIALTY HOSPITAL","LONG TERM CARE","OPEN",35.2323599,-97.46015234,"OPEN"
"646","NORMAN REGIONAL HEALTH SYSTEM -NORMAN CAMPUS","GENERAL ACUTE CARE","OPEN",35.23041388,-97.43929378,"OPEN"
"647","GRIFFIN MEMORIAL HOSPITAL","PSYCHIATRIC","OPEN",35.22901123,-97.42661818,"OPEN"
"648","J. D. MCCARTY CENTER FOR CHILDREN WITH DEVELOPMENTAL","REHABILITATION","OPEN",35.2320812,-97.40737758,"OPEN"
"649","ALLIANCEHEALTH DURANT","GENERAL ACUTE CARE","OPEN",34.00715192,-96.39342792,"OPEN"
"650","CARNEGIE TRI-COUNTY MUNICIPAL HOSPITAL","CRITICAL ACCESS","OPEN",35.10741577,-98.60519325,"OPEN"
"651","THE PHYSICIANS  HOSPITAL IN ANADARKO","CRITICAL ACCESS","OPEN",35.07050231,-98.2283253,"OPEN"
"652","INTEGRIS CANADIAN VALLEY HOSPITAL","GENERAL ACUTE CARE","OPEN",35.48511351,-97.76315476,"OPEN"
"653","MERCY HOSPITAL EL RENO  INC","GENERAL ACUTE CARE","OPEN",35.52993164,-97.98055753,"OPEN"
"654","MERCY HOSPITAL ARDMORE  INC","GENERAL ACUTE CARE","OPEN",34.18896758,-97.14084275,"OPEN"
"655","MERCY HOSPITAL HEALDTON  INC.","CRITICAL ACCESS","OPEN",34.22286842,-97.49146648,"OPEN"
"656","ALLIANCEHEALTH SEMINOLE","GENERAL ACUTE CARE","OPEN",35.24497499,-96.69840924,"OPEN"
"657","HILLCREST HOSPITAL SOUTH","GENERAL ACUTE CARE","OPEN",36.0353155,-95.86355986,"OPEN"
"658","HILLCREST MEDICAL CENTER","GENERAL ACUTE CARE","OPEN",36.14716118,-95.96851083,"OPEN"
"659","BAILEY MEDICAL CENTER  LLC","GENERAL ACUTE CARE","OPEN",36.30480757,-95.85274983,"OPEN"
"660","SAINT FRANCIS HOSPITAL SOUTH","GENERAL ACUTE CARE","OPEN",36.03358225,-95.8573201,"OPEN"
"661","OKLAHOMA SURGICAL HOSPITAL  LLC","GENERAL ACUTE CARE","OPEN",36.0433817,-95.95353568,"OPEN"
"662","PINNACLE SPECIALTY HOSPITAL","GENERAL ACUTE CARE","OPEN",36.04293912,-95.95394971,"OPEN"
"663","OKLAHOMA STATE UNIVERSITY MEDICAL CENTER","GENERAL ACUTE CARE","OPEN",36.14670539,-95.99984393,"OPEN"
"664","SAINT FRANCIS HOSPITAL  INC.","GENERAL ACUTE CARE","OPEN",36.07276583,-95.91898427,"OPEN"
"665","SOUTHWESTERN REGIONAL MEDICAL CENTER","SPECIAL","OPEN",36.05118651,-95.86348074,"OPEN"
"666","TULSA SPINE & SPECIALTY HOSPITAL","SPECIAL","OPEN",36.06397615,-96.00354755,"OPEN"
"667","BROOKHAVEN HOSPITAL","PSYCHIATRIC","OPEN",36.15820501,-95.84983187,"OPEN"
"668","LAUREATE PSYCHIATRIC CLINIC AND HOSPITAL","PSYCHIATRIC","OPEN",36.06595501,-95.91859307,"OPEN"
"669","PARKSIDE","PSYCHIATRIC","OPEN",36.14517549,-95.96896001,"OPEN"
"670","SHADOW MOUNTAIN BEHAVIORAL HEALTH SYSTEM","PSYCHIATRIC","OPEN",36.07290864,-95.90553001,"OPEN"
"671","MEMORIAL HOSPITAL & PHYSICIAN GROUP","GENERAL ACUTE CARE","OPEN",34.40377445,-99.0136548,"CLOSED"
"672","MEMORIAL HOSPITAL OF TEXAS COUNTY AUTHORITY","GENERAL ACUTE CARE","OPEN",36.69097241,-101.4759946,"OPEN"
"673","HILLCREST HOSPITAL CLAREMORE","GENERAL ACUTE CARE","OPEN",36.32264454,-95.60467518,"OPEN"
"674","DUNCAN REGIONAL HOSPITAL","GENERAL ACUTE CARE","OPEN",34.52031753,-97.975948,"OPEN"
"675","SEQUOYAH MEMORIAL HOSPITAL","GENERAL ACUTE CARE","OPEN",35.4639061,-94.78830959,"OPEN"
"676","BEAVER COUNTY MEMORIAL HOSPITAL","CRITICAL ACCESS","OPEN",36.81078453,-100.5162764,"OPEN"
"677","ATOKA COUNTY MEDICAL CENTER","CRITICAL ACCESS","OPEN",34.3925323,-96.15144054,"OPEN"
"678","MEMORIAL HOSPITAL","GENERAL ACUTE CARE","OPEN",35.80932236,-94.64315334,"OPEN"
"679","GREAT PLAINS REGIONAL MEDICAL CENTER","GENERAL ACUTE CARE","OPEN",35.41398306,-99.42625102,"OPEN"
"680","SAYRE MEMORIAL HOSPITAL","GENERAL ACUTE CARE","OPEN",35.30724323,-99.63238712,"OPEN"
"681","WAGONER COMMUNITY HOSPITAL","GENERAL ACUTE CARE","OPEN",35.96152396,-95.3924305,"OPEN"
"682","CORDELL MEMORIAL HOSPITAL","CRITICAL ACCESS","OPEN",35.30304934,-98.98855104,"OPEN"
"683","OU MEDICAL CENTER","GENERAL ACUTE CARE","OPEN",35.48077952,-97.5015588,"OPEN"
"684","CORNERSTONE HOSPITAL OF OKLAHOMA - MUSKOGEE","LONG TERM CARE","OPEN",35.75212037,-95.41108322,"OPEN"
"685","HILLCREST HOSPITAL HENRYETTA","GENERAL ACUTE CARE","OPEN",35.43809543,-96.01566189,"OPEN"
"686","MERCY HOSPITAL ADA  INC.","GENERAL ACUTE CARE","OPEN",34.77827025,-96.63336758,"OPEN"
"687","MUSCOGEE (CREEK) NATION MEDICAL CENTER","GENERAL ACUTE CARE","OPEN",35.61118802,-95.952485,"OPEN"
"688","NORTHEASTERN HEALTH SYSTEM","GENERAL ACUTE CARE","OPEN",35.91400342,-94.95028445,"OPEN"
"689","OKLAHOMA HEART HOSPITAL SOUTH","GENERAL ACUTE CARE","OPEN",35.38968219,-97.42710767,"OPEN"
"690","POST ACUTE MEDICAL SPECIALTY HOSPITAL OF TULSA","LONG TERM CARE","OPEN",36.11481974,-95.89049311,"OPEN"
"691","ROGER MILLS MEMORIAL HOSPITAL","CRITICAL ACCESS","OPEN",35.60943113,-99.67153117,"OPEN"
"692","ALLIANCEHEALTH MADILL","CRITICAL ACCESS","OPEN",34.08109707,-96.77755226,"OPEN"
"693","MERCY HOSPITAL KINGFISHER","CRITICAL ACCESS","OPEN",35.81023943,-97.9449127,"OPEN"
"694","SEILING MUNICIPAL HOSPITAL","CRITICAL ACCESS","OPEN",36.15479607,-98.92307343,"OPEN"
"695","SELECT SPECIALTY HOSPITAL - TULSA/MIDTOWN","LONG TERM CARE","OPEN",36.14698819,-95.96938592,"OPEN"
"696","VA MEDICAL CENTER - OKLAHOMA CITY","MILITARY","OPEN",35.48281519,-97.49667171,"OPEN"
"697","JACK C. MONTGOMERY VA MEDICAL CENTER","MILITARY","OPEN",35.76527571,-95.4146644,"OPEN"
"698","LE BONHEUR CHILDREN S HOSPITAL","CHILDREN","OPEN",35.1450508,-90.03180122,"OPEN"
"699","METHODIST HEALTHCARE - UNIVERSITY HOSPITAL","GENERAL ACUTE CARE","OPEN",35.13666855,-90.01946751,"OPEN"
"700","METHODIST LE BONHEUR GERMANTOWN HOSPITAL","GENERAL ACUTE CARE","OPEN",35.08981816,-89.80836623,"OPEN"
"701","METHODIST HOSPITAL-NORTH","GENERAL ACUTE CARE","OPEN",35.23407025,-89.89282093,"OPEN"
"702","METHODIST HOSPITAL-SOUTH","GENERAL ACUTE CARE","OPEN",35.03298287,-90.02120069,"OPEN"
"703","HANS P PETERSON MEMORIAL HOSPITAL","CRITICAL ACCESS","OPEN",44.03980876,-101.6714768,"OPEN"
"704","METHODIST EXTENDED CARE HOSPITAL","LONG TERM CARE","CLOSED",35.13514954,-90.01835992,"OPEN"
"705","BAPTIST MEMORIAL HOSPITAL - COLLIERVILLE","GENERAL ACUTE CARE","OPEN",35.04948437,-89.7145128,"OPEN"
"706","BAPTIST MEMORIAL HOSPITAL FOR WOMEN","WOMEN","OPEN",35.12787502,-89.85529467,"OPEN"
"707","HEALTHSOUTH REHABILITATION HOSPITAL - NORTH","REHABILITATION","OPEN",35.2372013,-89.89194018,"OPEN"
"708","AVERA DE SMET MEMORIAL HOSPITAL","CRITICAL ACCESS","OPEN",44.3859458,-97.56129715,"OPEN"
"709","HURON REGIONAL MEDICAL CENTER","CRITICAL ACCESS","OPEN",44.36153118,-98.21105963,"OPEN"
"710","LEAD-DEADWOOD REGIONAL HOSPITAL","CRITICAL ACCESS","OPEN",44.36962692,-103.7282684,"OPEN"
"711","TENNOVA HEALTHCARE - CLEVELAND","GENERAL ACUTE CARE","OPEN",35.1943189,-84.88121365,"OPEN"
"712","LINCOLN MEDICAL CENTER","GENERAL ACUTE CARE","OPEN",35.14960725,-86.55527721,"OPEN"
"713","STARR REGIONAL MEDICAL CENTER ETOWAH","GENERAL ACUTE CARE","OPEN",35.34509862,-84.52271936,"OPEN"
"714","STURGIS REGIONAL HOSPITAL","CRITICAL ACCESS","OPEN",44.40227207,-103.5070253,"OPEN"
"715","ANDROSCOGGIN VALLEY HOSPITAL","GENERAL ACUTE CARE","OPEN",44.4869509,-71.1552539,"OPEN"
"716","TRISTAR SUMMIT MEDICAL CENTER","GENERAL ACUTE CARE","OPEN",36.17637943,-86.60837516,"OPEN"
"717","COPLEY HOSPITAL","CRITICAL ACCESS","OPEN",44.55343518,-72.59143029,"OPEN"
"718","NORTHEASTERN VERMONT REGIONAL HOSPITAL","CRITICAL ACCESS","OPEN",44.44578692,-72.00955799,"OPEN"
"719","UPPER CONNECTICUT VALLEY HOSPITAL","GENERAL ACUTE CARE","OPEN",44.90444711,-71.48080943,"OPEN"
"720","WEEKS MEDICAL CENTER","GENERAL ACUTE CARE","OPEN",44.48623037,-71.55433993,"OPEN"
"721","HILLSBORO AREA HOSPITAL","CRITICAL ACCESS","OPEN",39.15093034,-89.48004311,"OPEN"
"722","ST FRANCIS HOSPITAL","CRITICAL ACCESS","OPEN",39.18121356,-89.63905575,"OPEN"
"723","ST JOSEPH MEMORIAL HOSPITAL","CRITICAL ACCESS","OPEN",37.77371234,-89.32475501,"OPEN"
"724","HAMMOND HENRY HOSPITAL","CRITICAL ACCESS","OPEN",41.46031479,-90.15767685,"OPEN"
"725","WABASH GENERAL HOSPITAL","CRITICAL ACCESS","OPEN",38.42060693,-87.76938884,"OPEN"
"726","BECKLEY ARH HOSPITAL","GENERAL ACUTE CARE","OPEN",37.7988327,-81.16818375,"OPEN"
"727","OSF HOLY FAMILY MEDICAL CENTER","CRITICAL ACCESS","OPEN",40.92225293,-90.65830134,"OPEN"
"728","HAMILTON MEMORIAL HOSPITAL DISTRICT","CRITICAL ACCESS","OPEN",38.08685199,-88.5405041,"OPEN"
"729","MORRISON COMMUNITY HOSPITAL","CRITICAL ACCESS","OPEN",41.80893488,-89.95787808,"OPEN"
"730","FRANKLIN HOSPITAL","CRITICAL ACCESS","OPEN",38.01010378,-88.91821519,"OPEN"
"731","MARSHALL BROWNING HOSPITAL","CRITICAL ACCESS","OPEN",38.02526846,-89.23647497,"OPEN"
"732","CRAWFORD MEMORIAL HOSPITAL","CRITICAL ACCESS","OPEN",39.01454146,-87.75041677,"OPEN"
"733","SARAH D CULBERTSON MEMORIAL HOSPITAL","CRITICAL ACCESS","OPEN",40.1181628,-90.5643155,"OPEN"
"734","FERRELL HOSPITAL COMMUNITY FOUNDATIONS","CRITICAL ACCESS","OPEN",37.81551045,-88.44217154,"OPEN"
"735","PERRY MEMORIAL HOSPITAL","CRITICAL ACCESS","OPEN",41.36691304,-89.45585736,"OPEN"
"736","HOPEDALE MEDICAL COMPLEX","CRITICAL ACCESS","OPEN",40.41841146,-89.41756224,"OPEN"
"737","RED BUD REGIONAL HOSPITAL","CRITICAL ACCESS","OPEN",38.20903721,-89.99685305,"OPEN"
"738","SPARTA COMMUNITY HOSPITAL","CRITICAL ACCESS","OPEN",38.12411499,-89.69153853,"OPEN"
"739","TAYLORVILLE MEMORIAL HOSPITAL","CRITICAL ACCESS","OPEN",39.55532537,-89.29425954,"OPEN"
"740","PANA COMMUNITY HOSPITAL","CRITICAL ACCESS","OPEN",39.37970124,-89.08440423,"OPEN"
"741","CLAY COUNTY HOSPITAL","CRITICAL ACCESS","OPEN",38.68085081,-88.47281706,"OPEN"
"742","LAWRENCE COUNTY MEMORIAL HOSPITAL","CRITICAL ACCESS","OPEN",38.72861518,-87.69387325,"OPEN"
"743","ABRAHAM LINCOLN MEMORIAL HOSPITAL","CRITICAL ACCESS","OPEN",40.1537865,-89.38989355,"OPEN"
"744","SALEM TOWNSHIP HOSPITAL","CRITICAL ACCESS","OPEN",38.64147989,-88.94855005,"OPEN"
"745","CARLINVILLE AREA HOSPITAL","CRITICAL ACCESS","OPEN",39.29940984,-89.88307566,"OPEN"
"746","MASSAC MEMORIAL HOSPITAL","CRITICAL ACCESS","OPEN",37.16637476,-88.74004867,"OPEN"
"747","FAIRMONT GENERAL HOSPITAL","GENERAL ACUTE CARE","OPEN",39.48367473,-80.1613545,"OPEN"
"748","PARIS COMMUNITY HOSPITAL","CRITICAL ACCESS","OPEN",39.60684004,-87.6776547,"OPEN"
"749","NANTICOKE MEMORIAL HOSPITAL","GENERAL ACUTE CARE","OPEN",38.64168815,-75.60448633,"OPEN"
"750","MEADOW WOOD BEHAVIORAL HEALTH SYSTEM","PSYCHIATRIC","OPEN",39.63972812,-75.62934354,"OPEN"
"751","ST. FRANCIS HOSPITAL","GENERAL ACUTE CARE","OPEN",39.74986894,-75.56687351,"OPEN"
"752","ROCKFORD CENTER","PSYCHIATRIC","OPEN",39.6952703,-75.66104234,"OPEN"
"753","SELECT SPECIALTY HOSPITAL OF WILMINGTON","LONG TERM CARE","OPEN",39.75002974,-75.56674041,"OPEN"
"754","BEEBE MEDICAL CENTER","GENERAL ACUTE CARE","OPEN",38.77176047,-75.14326767,"OPEN"
"755","ALASKA PSYCHIATRIC INSTITUTE","PSYCHIATRIC","OPEN",61.1850968,-149.8298016,"OPEN"
"756","PROVIDENCE SEWARD MEDICAL CENTER","GENERAL ACUTE CARE","OPEN",60.10505818,-149.4458354,"OPEN"
"757","CENTRAL PENINSULA GENERAL HOSPITAL","GENERAL ACUTE CARE","OPEN",60.49316905,-151.077827,"OPEN"
"758","ALASKA NATIVE MEDICAL CENTER - ANMC","GENERAL ACUTE CARE","OPEN",61.18295035,-149.8002926,"OPEN"
"759","ALASKA REGIONAL HOSPITAL","GENERAL ACUTE CARE","OPEN",61.21073914,-149.8289882,"OPEN"
"760","PROVIDENCE ALASKA MEDICAL CENTER","GENERAL ACUTE CARE","OPEN",61.18876288,-149.8199587,"OPEN"
"761","KANAKANAK HOSPITAL - BBAHC","CRITICAL ACCESS","OPEN",59.00047476,-158.5363123,"OPEN"
"762","SOUTH PENINSULA HOSPITAL","CRITICAL ACCESS","OPEN",59.65247012,-151.5501298,"OPEN"
"763","PEACEHEALTH KETCHIKAN MEDICAL CENTER","CRITICAL ACCESS","OPEN",55.35371869,-131.6857884,"OPEN"
"764","BAYHEALTH KENT GENERAL HOSPITAL","GENERAL ACUTE CARE","OPEN",39.1507908,-75.52369592,"OPEN"
"765","DOVER BEHAVIORAL HEALTH SYSTEM","PSYCHIATRIC","OPEN",39.15367085,-75.48426014,"OPEN"
"766","FAIRBANKS MEMORIAL HOSPITAL","GENERAL ACUTE CARE","OPEN",64.83174471,-147.7393928,"OPEN"
"767","PROVIDENCE KODIAK ISLAND MEDICAL CENTER","GENERAL ACUTE CARE","OPEN",57.80089998,-152.3756077,"OPEN"
"768","SITKA COMMUNITY HOSPITAL","GENERAL ACUTE CARE","OPEN",57.05976133,-135.346935,"OPEN"
"769","WRANGELL MEDICAL CENTER AND LTC","GENERAL ACUTE CARE","OPEN",56.47178239,-132.3758039,"OPEN"
"770","NORTON SOUND REGIONAL HOSPITAL","GENERAL ACUTE CARE","OPEN",64.50191806,-165.4053146,"OPEN"
"771","MAT-SU REGIONAL MEDICAL CENTER","GENERAL ACUTE CARE","OPEN",61.56289358,-149.2583112,"OPEN"
"772","PETERSBURG MEDICAL CENTER","GENERAL ACUTE CARE","OPEN",56.81288408,-132.9552051,"OPEN"
"773","PROVIDENCE VALDEZ MEDICAL CENTER","GENERAL ACUTE CARE","OPEN",61.13653378,-146.3465517,"OPEN"
"774","MANIILAQ MEDICAL CENTER","CRITICAL ACCESS","OPEN",66.89600162,-162.5868263,"OPEN"
"775","MT EDGECUMBE HOSPITAL - SEARHC","CRITICAL ACCESS","OPEN",57.05156556,-135.3548767,"OPEN"
"776","STAR VALLEY MEDICAL CENTER","CRITICAL ACCESS","OPEN",42.71732992,-110.9304375,"OPEN"
"777","SOUTH BIG HORN COUNTY CRITICAL ACCESS HOSPITAL","CRITICAL ACCESS","OPEN",44.43388761,-108.0509123,"OPEN"
"778","WYOMING STATE HOSPITAL","PSYCHIATRIC","OPEN",41.26382872,-110.9470982,"OPEN"
"779","JACKSON COUNTY HOSPITAL","GENERAL ACUTE CARE","CLOSED",36.34880706,-85.65624427,"OPEN"
"780","NORTH VALLEY HOSPITAL","CRITICAL ACCESS","OPEN",48.38027696,-114.3313438,"OPEN"
"781","ADVANCED CARE HOSPITAL OF MONTANA","LONG TERM CARE","OPEN",45.74313397,-108.6046346,"OPEN"
"782","GREAT FALLS CLINIC MEDICAL CENTER","GENERAL ACUTE CARE","OPEN",47.48935452,-111.2913526,"OPEN"
"783","MAURY REGIONAL HOSPITAL","GENERAL ACUTE CARE","OPEN",35.60716387,-87.06689111,"OPEN"
"784","ST. PETER S HOSPITAL","GENERAL ACUTE CARE","OPEN",42.65596772,-73.80365597,"OPEN"
"785","CUBA MEMORIAL HOSPITAL","CRITICAL ACCESS","OPEN",42.21292247,-78.28786338,"OPEN"
"786","BENEFIS HEALTH CARE (WEST CAMPUS)","GENERAL ACUTE CARE","OPEN",47.48881047,-111.2984999,"OPEN"
"787","ST PETERS HOSPITAL","GENERAL ACUTE CARE","OPEN",46.58267004,-111.9974384,"OPEN"
"788","MONTANA STATE HOSPITAL","PSYCHIATRIC","OPEN",46.18081803,-112.7908673,"OPEN"
"789","MACON COUNTY GENERAL HOSPITAL","CRITICAL ACCESS","OPEN",36.5197015,-86.02629396,"OPEN"
"790","JACKSON - MADISON COUNTY GENERAL HOSPITAL","GENERAL ACUTE CARE","OPEN",35.63673266,-88.83178969,"OPEN"
"791","TENNOVA HEALTHCARE - REGIONAL JACKSON","GENERAL ACUTE CARE","OPEN",35.68444711,-88.85404848,"OPEN"
"792","SAINT THOMAS RIVER PARK HOSPITAL","GENERAL ACUTE CARE","OPEN",35.69984449,-85.74297892,"OPEN"
"793","HENRY COUNTY MEDICAL CENTER","GENERAL ACUTE CARE","OPEN",36.29654269,-88.31030459,"OPEN"
"794","JOHNSON CITY MEDICAL CENTER","GENERAL ACUTE CARE","OPEN",36.3078431,-82.38456264,"OPEN"
"795","QUILLEN REHABILITATION HOSPITAL","REHABILITATION","OPEN",36.35377858,-82.3717817,"OPEN"
"796","WOODRIDGE PSYCHIATRIC HOSPITAL","PSYCHIATRIC","OPEN",36.30773308,-82.38772184,"OPEN"
"797","JOHNSON CITY SPECIALTY HOSPITAL","GENERAL ACUTE CARE","CLOSED",36.32371007,-82.35453131,"OPEN"
"798","TROUSDALE MEDICAL CENTER","CRITICAL ACCESS","OPEN",36.38783255,-86.16815993,"OPEN"
"799","LAUDERDALE COMMUNITY HOSPITAL","CRITICAL ACCESS","OPEN",35.74435252,-89.54963519,"OPEN"
"800","LIVINGSTON REGIONAL HOSPITAL","GENERAL ACUTE CARE","OPEN",36.38522911,-85.32758442,"OPEN"
"801","BAPTIST MEMORIAL HOSPITAL - UNION CITY","GENERAL ACUTE CARE","OPEN",36.41423378,-89.04496858,"OPEN"
"802","COPPER BASIN MEDICAL CENTER","GENERAL ACUTE CARE","OPEN",35.0269471,-84.38571051,"CLOSED"
"803","BEDFORD COUNTY MEDICAL CENTER","GENERAL ACUTE CARE","CLOSED",35.49344589,-86.47247381,"OPEN"
"804","TENNOVA HEALTHCARE - SHELBYVILLE","GENERAL ACUTE CARE","OPEN",35.5635328,-86.44895596,"OPEN"
"805","METHODIST MEDICAL CENTER OF OAK RIDGE","GENERAL ACUTE CARE","OPEN",36.02454511,-84.24508553,"OPEN"
"806","ERLANGER BLEDSOE","GENERAL ACUTE CARE","OPEN",35.62068597,-85.19086883,"OPEN"
"807","CAMDEN GENERAL HOSPITAL","GENERAL ACUTE CARE","OPEN",36.05521682,-88.10794649,"OPEN"
"808","BLOUNT MEMORIAL HOSPITAL","GENERAL ACUTE CARE","OPEN",35.75646224,-83.95871505,"OPEN"
"809","NORTHCREST MEDICAL CENTER","GENERAL ACUTE CARE","OPEN",36.47848008,-86.88690193,"OPEN"
"810","SWEETWATER HOSPITAL ASSOCIATION","GENERAL ACUTE CARE","OPEN",35.60069384,-84.46428463,"OPEN"
"811","TENNOVA HEALTHCARE - CLARKSVILLE","GENERAL ACUTE CARE","OPEN",36.5819764,-87.27047352,"OPEN"
"812","SAINT THOMAS STONES RIVER HOSPITAL","GENERAL ACUTE CARE","OPEN",35.83271089,-86.07184284,"OPEN"
"813","BAPTIST MEMORIAL HOSPITAL - HUNTINGTON","GENERAL ACUTE CARE","OPEN",36.02316734,-88.41240859,"OPEN"
"814","MCKENZIE REGIONAL HOSPITAL","GENERAL ACUTE CARE","OPEN",36.13742735,-88.48936033,"OPEN"
"815","JELLICO COMMUNITY HOSPITAL","GENERAL ACUTE CARE","OPEN",36.57370136,-84.12854359,"OPEN"
"816","CLAIBORNE COUNTY HOSPITAL","GENERAL ACUTE CARE","OPEN",36.45283389,-83.57227572,"OPEN"
"817","CUMBERLAND RIVER HOSPITAL","GENERAL ACUTE CARE","OPEN",36.54412615,-85.50049893,"OPEN"
"818","TRISTAR ASHLAND CITY MEDICAL CENTER","CRITICAL ACCESS","OPEN",36.27711959,-87.06559473,"OPEN"
"819","TENNOVA HEALTHCARE - NEWPORT MEDICAL CENTER","GENERAL ACUTE CARE","OPEN",35.96420392,-83.18219867,"OPEN"
"820","DELTA MEDICAL CENTER","GENERAL ACUTE CARE","OPEN",35.06706746,-89.93115119,"OPEN"
"821","MEMPHIS VETERANS AFFAIRS MEDICAL CENTER","MILITARY","OPEN",35.14352075,-90.02634368,"OPEN"
"822","SCOTT COUNTY HOSPITAL","GENERAL ACUTE CARE","CLOSED",36.50442489,-84.51586367,"OPEN"
"823","SYCAMORE SHOALS HOSPITAL","GENERAL ACUTE CARE","OPEN",36.34586706,-82.25000167,"OPEN"
"824","RIVERVIEW REGIONAL MEDICAL CENTER","GENERAL ACUTE CARE","OPEN",36.26425346,-85.94974537,"OPEN"
"825","STARR REGIONAL MEDICAL CENTER","GENERAL ACUTE CARE","OPEN",35.44081499,-84.60735287,"OPEN"
"826","FORT LOUDOUN MEDICAL CENTER","GENERAL ACUTE CARE","OPEN",35.82517217,-84.27018079,"OPEN"
"827","TRISTAR SOUTHERN HILLS MEDICAL CENTER","GENERAL ACUTE CARE","OPEN",36.07638237,-86.72189213,"OPEN"
"828","METROPOLITAN NASHVILLE GENERAL HOSPITAL","GENERAL ACUTE CARE","OPEN",36.16690697,-86.80656112,"OPEN"
"829","TRISTAR SKYLINE MEDICAL CENTER","GENERAL ACUTE CARE","OPEN",36.24534093,-86.74961898,"OPEN"
"830","SAINT THOMAS WEST HOSPITAL","GENERAL ACUTE CARE","OPEN",36.12940197,-86.84451646,"OPEN"
"831","KINDRED HOSPITAL - NASHVILLE","LONG TERM CARE","OPEN",36.17746807,-86.84612428,"OPEN"
"832","TRISTAR SKYLINE MADISON CAMPUS","PSYCHIATRIC","OPEN",36.2543611,-86.68210462,"OPEN"
"833","SELECT SPECIALTY HOSPITAL - NASHVILLE","LONG TERM CARE","OPEN",36.15276546,-86.80116326,"OPEN"
"834","TRISTAR CENTENNIAL MEDICAL CENTER","GENERAL ACUTE CARE","OPEN",36.15375182,-86.80900486,"OPEN"
"835","THE WOMEN S HOSPITAL AT CENTENNIAL","WOMEN","OPEN",36.15366491,-86.80683145,"OPEN"
"836","SAINT THOMAS HOSPITAL FOR SPECIALTY SURGERY","GENERAL ACUTE CARE","OPEN",36.15508556,-86.80325564,"OPEN"
"837","VANDERBILT UNIVERSITY HOSPITAL","GENERAL ACUTE CARE","OPEN",36.14083601,-86.8021667,"OPEN"
"838","CUMBERLAND MEDICAL CENTER","GENERAL ACUTE CARE","OPEN",35.943325,-85.02203136,"OPEN"
"839","DECATUR COUNTY GENERAL HOSPITAL","GENERAL ACUTE CARE","OPEN",35.6359507,-88.12224489,"OPEN"
"840","LAKEWAY REGIONAL HOSPITAL","GENERAL ACUTE CARE","OPEN",36.21473336,-83.30379891,"OPEN"
"841","MORRISTOWN-HAMBLEN HEALTHCARE SYSTEM","GENERAL ACUTE CARE","OPEN",36.2129657,-83.30531638,"OPEN"
"842","ERLANGER MEDICAL CENTER","GENERAL ACUTE CARE","OPEN",35.04889413,-85.29004745,"OPEN"
"843","ERLANGER EAST CAMPUS","GENERAL ACUTE CARE","OPEN",35.02255862,-85.16062411,"OPEN"
"844","METROPOLITAN HOSPITAL","GENERAL ACUTE CARE","CLOSED",35.04720526,-85.30359401,"OPEN"
"845","MEMORIAL HOSPITAL HIXSON","GENERAL ACUTE CARE","OPEN",35.12468548,-85.23808028,"OPEN"
"846","PARKRIDGE MEDICAL CENTER","GENERAL ACUTE CARE","OPEN",35.03492949,-85.26748228,"OPEN"
"847","PARKRIDGE EAST HOSPITAL","GENERAL ACUTE CARE","OPEN",34.99880292,-85.21894236,"OPEN"
"848","PARKRIDGE VALLEY HOSPITAL","GENERAL ACUTE CARE","OPEN",35.02685923,-85.12145583,"OPEN"
"849","SISKIN HOSPITAL FOR PHYSICAL REHABILITATION","REHABILITATION","OPEN",35.05036361,-85.29159691,"OPEN"
"850","KINDRED HOSPITAL - CHATTANOOGA","LONG TERM CARE","OPEN",35.04757814,-85.30770622,"OPEN"
"851","MEMORIAL HEALTH CARE SYSTEM","GENERAL ACUTE CARE","OPEN",35.04157461,-85.26002662,"OPEN"
"852","ERLANGER NORTH CAMPUS","GENERAL ACUTE CARE","OPEN",35.1235785,-85.30202706,"OPEN"
"853","WELLMONT HANCOCK COUNTY HOSPITAL","CRITICAL ACCESS","OPEN",36.53333298,-83.21510814,"OPEN"
"854","SOUTHERN TENNESSEE REGIONAL HEALTH SYSTEM LAWRENCEBURG","GENERAL ACUTE CARE","OPEN",35.2219546,-87.33830333,"OPEN"
"855","UNITED REGIONAL MEDICAL CENTER","GENERAL ACUTE CARE","CLOSED",35.46900639,-86.08407034,"CLOSED"
"856","UNITY MEDICAL CENTER","GENERAL ACUTE CARE","OPEN",35.49687997,-86.07840122,"OPEN"
"857","METHODIST HEALTHCARE - FAYETTE HOSPITAL","GENERAL ACUTE CARE","CLOSED",35.24683128,-89.36379663,"OPEN"
"858","TENNOVA HEALTHCARE - DYERSBURG REGIONAL","GENERAL ACUTE CARE","OPEN",36.04818558,-89.37991442,"OPEN"
"859","TRISTAR HORIZON MEDICAL CENTER","GENERAL ACUTE CARE","OPEN",36.07330617,-87.37572716,"OPEN"
"860","SAINT THOMAS DEKALB HOSPITAL","GENERAL ACUTE CARE","OPEN",35.96150829,-85.82954345,"OPEN"
"861","TENNOVA HEALTHCARE - JAMESTOWN","GENERAL ACUTE CARE","OPEN",36.43236193,-84.94317595,"OPEN"
"862","BAPTIST MEMORIAL HOSPITAL TIPTON","GENERAL ACUTE CARE","OPEN",35.53571016,-89.67760669,"OPEN"
"863","TRISTAR PORTLAND MEDICAL PARK","GENERAL ACUTE CARE","OPEN",36.55729151,-86.51161996,"OPEN"
"864","SUMNER REGIONAL MEDICAL CENTER","GENERAL ACUTE CARE","OPEN",36.39001409,-86.43409583,"OPEN"
"865","TRISTAR HENDERSONVILLE MEDICAL CENTER","GENERAL ACUTE CARE","OPEN",36.32481862,-86.62223383,"OPEN"
"866","WELLMONT BRISTOL REGIONAL MEDICAL CENTER","GENERAL ACUTE CARE","OPEN",36.58551645,-82.25692327,"OPEN"
"867","HEALTHSOUTH REHABILITATION HOSPITAL","REHABILITATION","OPEN",36.5535642,-82.5513784,"OPEN"
"868","WELLMONT-HOLSTON VALLEY MEDICAL CENTER","GENERAL ACUTE CARE","OPEN",36.55410317,-82.55460725,"OPEN"
"869","INDIAN PATH MEDICAL CENTER","GENERAL ACUTE CARE","OPEN",36.55080903,-82.51427614,"OPEN"
"870","PERRY COMMUNITY HOSPITAL","GENERAL ACUTE CARE","OPEN",35.59232333,-87.86375527,"OPEN"
"871","WELLMONT HAWKINS COUNTY MEMORIAL HOSPITA","GENERAL ACUTE CARE","OPEN",36.40021927,-83.01423357,"OPEN"
"872","HENDERSON COUNTY COMMUNITY HOSPITAL","GENERAL ACUTE CARE","OPEN",35.65530193,-88.39866414,"OPEN"
"873","TENNOVA HEALTHCARE - VOLUNTEER MARTIN","GENERAL ACUTE CARE","OPEN",36.33474838,-88.86849627,"OPEN"
"874","HEALTHSOUTH CANE CREEK REHABILITATION CENTER","REHABILITATION","OPEN",36.33255272,-88.86991049,"OPEN"
"875","WAYNE MEDICAL CENTER","GENERAL ACUTE CARE","OPEN",35.32475293,-87.75688433,"OPEN"
"876","WILLIAMSON MEDICAL CENTER","GENERAL ACUTE CARE","OPEN",35.91616226,-86.81925004,"OPEN"
"877","SAINT THOMAS HIGHLANDS HOSPITAL  LLC","GENERAL ACUTE CARE","OPEN",35.94916129,-85.47723715,"OPEN"
"878","TENNOVA HEALTHCARE - LEBANON","GENERAL ACUTE CARE","OPEN",36.22160565,-86.32762032,"OPEN"
"879","TENNOVA HEALTHCARE - LEBANON MCFARLAND CAMPUS","GENERAL ACUTE CARE","OPEN",36.20329419,-86.28313467,"OPEN"
"880","ROANE MEDICAL CENTER","GENERAL ACUTE CARE","CLOSED",35.93496509,-84.55172641,"OPEN"
"881","RHEA MEDICAL CENTER","GENERAL ACUTE CARE","OPEN",35.52910134,-84.98177946,"OPEN"
"882","COOKEVILLE REGIONAL MEDICAL CENTER","GENERAL ACUTE CARE","OPEN",36.16932679,-85.50876258,"OPEN"
"883","SAINT THOMAS RUTHERFORD HOSPITAL","GENERAL ACUTE CARE","OPEN",35.86057912,-86.42503138,"OPEN"
"884","MIDDLE TENNESSEE MEDICAL CENTER","GENERAL ACUTE CARE","CLOSED",35.84879593,-86.38229538,"OPEN"
"885","TRISTAR STONECREST MEDICAL CENTER","GENERAL ACUTE CARE","OPEN",35.97503426,-86.56520216,"OPEN"
"886","SOUTHERN TENNESSEE REGIONAL HEALTH SYSTEM WINCHESTER","GENERAL ACUTE CARE","OPEN",35.17588667,-86.09013143,"OPEN"
"887","SOUTHERN TENNESSEE REGIONAL HEALTH SYSTEM SEWANEE","GENERAL ACUTE CARE","OPEN",35.20806335,-85.91386139,"OPEN"
"888","GIBSON GENERAL HOSPITAL","GENERAL ACUTE CARE","CLOSED",35.96315755,-88.93894563,"CLOSED"
"889","HUMBOLDT GENERAL HOSPITAL","GENERAL ACUTE CARE","CLOSED",35.81584684,-88.89525133,"OPEN"
"890","MILAN GENERAL HOSPITAL","GENERAL ACUTE CARE","OPEN",35.91228641,-88.75414132,"OPEN"
"891","SOUTHERN TENNESSEE REGIONAL HEALTH SYSTEM PULASKI","GENERAL ACUTE CARE","OPEN",35.18924094,-87.00412139,"OPEN"
"892","TENNOVA HEALTHCARE - JEFFERSON MEMORIAL HOSPITAL","GENERAL ACUTE CARE","OPEN",36.10663844,-83.51890941,"OPEN"
"893","HOUSTON COUNTY COMMUNITY HOSPITAL","GENERAL ACUTE CARE","OPEN",36.32017057,-87.68964349,"OPEN"
"894","SAINT THOMAS HICKMAN HOSPITAL","CRITICAL ACCESS","OPEN",35.7794869,-87.45896011,"OPEN"
"895","LAUGHLIN MEMORIAL HOSPITAL","GENERAL ACUTE CARE","OPEN",36.17353337,-82.79023851,"OPEN"
"896","TAKOMA ADVENTIST HOSPITAL","GENERAL ACUTE CARE","OPEN",36.15129964,-82.84567491,"OPEN"
"897","JOHNSON COUNTY HEALTH CENTER","GENERAL ACUTE CARE","OPEN",36.45355595,-81.79768063,"OPEN"
"898","BAPTIST HOSPITAL OF EAST TENNESSEE","GENERAL ACUTE CARE","CLOSED",35.95524565,-83.91445957,"OPEN"
"899","EAST TENNESSEE CHILDREN S HOSPITAL","CHILDREN","OPEN",35.95628817,-83.93767478,"OPEN"
"900","PARKWEST MEDICAL CENTER","GENERAL ACUTE CARE","OPEN",35.91707245,-84.10064379,"OPEN"
"901","FORT SANDERS REGIONAL MEDICAL CENTER","GENERAL ACUTE CARE","OPEN",35.95703172,-83.9372099,"OPEN"
"902","TENNOVA HEALTHCARE PHYSICIANS REGIONAL MEDICAL CENTER","GENERAL ACUTE CARE","OPEN",35.99238358,-83.92681776,"OPEN"
"903","THE UNIVERSITY OF TENNESSEE MEDICAL CENTER","GENERAL ACUTE CARE","OPEN",35.94044734,-83.94388413,"OPEN"
"904","SELECT SPECIALTY HOSPITAL - KNOXVILLE (UT MEDICAL CENTER)","LONG TERM CARE","CLOSED",35.93900182,-83.94438382,"OPEN"
"905","SELECT SPECIALTY HOSPITAL - OAK HILL","LONG TERM CARE","CLOSED",35.99136636,-83.9266036,"OPEN"
"906","SELECT SPECIALTY HOSPITAL - KNOXVILLE","LONG TERM CARE","OPEN",35.95724587,-83.93669832,"OPEN"
"907","TENNOVA HEALTHCARE TURKEY CREEK MEDICAL CENTER","GENERAL ACUTE CARE","OPEN",35.89849035,-84.14429529,"OPEN"
"908","BAPTIST HOSPITAL FOR WOMEN","WOMEN","CLOSED",35.89884132,-84.1431353,"OPEN"
"909","TENNOVA HEALTHCARE NORTH KNOXVILLE MEDICAL CENTER","GENERAL ACUTE CARE","OPEN",36.05284237,-83.99780276,"OPEN"
"910","JAMES H. QUILLEN VA MEDICAL CENTER","MILITARY","OPEN",36.30913796,-82.37020633,"OPEN"
"911","TENNOVA HEALTHCARE - CLEVELAND","GENERAL ACUTE CARE","OPEN",35.17719817,-84.86990561,"OPEN"
"912","BAPTIST MEMORIAL REHABILITATION HOSPITAL","REHABILITATION","OPEN",35.11391047,-89.79951397,"OPEN"
"913","BAPTIST MEMORIAL RESTORATIVE CARE HOSPITAL","LONG TERM CARE","OPEN",35.12903417,-89.8615886,"OPEN"
"914","HEALTHSOUTH CHATTANOOGA REHABILITATION HOSPITAL","REHABILITATION","OPEN",35.03215742,-85.26644721,"OPEN"
"915","HEALTHSOUTH REHABILITATION HOSPITAL OF FRANKLIN","REHABILITATION","OPEN",35.91911517,-86.81923101,"OPEN"
"916","PARKRIDGE VALLEY ADULT SERVICES","PSYCHIATRIC","OPEN",35.05372069,-85.14322088,"OPEN"
"917","SAINT THOMAS MIDTOWN HOSPITAL","GENERAL ACUTE CARE","OPEN",36.1539076,-86.80200559,"OPEN"
"918","SELECT SPECIALTY HOSPITAL - MEMPHIS","LONG TERM CARE","OPEN",35.09823359,-89.86400431,"OPEN"
"919","SELECT SPECIALTY HOSPITAL - NORTH KNOXVILLE","LONG TERM CARE","OPEN",36.0534991,-83.99768854,"OPEN"
"920","SELECT SPECIALTY HOSPITAL - TRICITIES","LONG TERM CARE","OPEN",36.58524519,-82.25636647,"OPEN"
"921","ST. JUDE CHILDREN S RESEARCH HOSPITAL","CHILDREN","OPEN",35.15421585,-90.04290223,"OPEN"
"922","THREE RIVERS HOSPITAL","CRITICAL ACCESS","OPEN",36.07603106,-87.79233528,"OPEN"
"923","TRUSTPOINT HOSPITAL","PSYCHIATRIC","OPEN",35.86389133,-86.43032806,"OPEN"
"924","VANDERBILT STALLWORTH REHABILITATION HOSPITAL","REHABILITATION","OPEN",36.13841629,-86.80256887,"OPEN"
"925","WEST TENNESSEE REHABILITATION HOSPITAL  LLC","REHABILITATION","OPEN",35.63487668,-88.82842037,"OPEN"
"926","NEW YORK COMMUNITY HOSPITAL","GENERAL ACUTE CARE","OPEN",40.61377099,-73.94871078,"OPEN"
"927","KANSAS MEDICAL CENTER LLC","GENERAL ACUTE CARE","OPEN",37.72429664,-97.14730746,"OPEN"
"928","COFFEY COUNTY HOSPITAL","GENERAL ACUTE CARE","OPEN",38.20227177,-95.73769964,"OPEN"
"929","STATEN ISLAND UNIVERSITY HOSPITAL - SOUTH","GENERAL ACUTE CARE","OPEN",40.51656928,-74.19646609,"OPEN"
"930","HOSP SAN CRISTOBAL","SPECIAL","OPEN",18.03967485,-66.54740673,"OPEN"
"931","GREENWOOD COUNTY HOSPITAL","CRITICAL ACCESS","OPEN",37.83569758,-96.2938025,"OPEN"
"932","GREAT BEND REGIONAL HOSPITAL","GENERAL ACUTE CARE","OPEN",38.35616569,-98.79071269,"OPEN"
"933","SUMMIT SURGICAL LLC","GENERAL ACUTE CARE","OPEN",38.08021601,-97.88850527,"OPEN"
"934","MEADOWBROOK REHABILITATION HOSPITAL","REHABILITATION","OPEN",38.80996793,-94.93786411,"OPEN"
"935","KIOWA COUNTY MEMORIAL HOSPITAL","CRITICAL ACCESS","OPEN",37.60555278,-99.30143756,"OPEN"
"936","HAYS MEDICAL CENTER","GENERAL ACUTE CARE","OPEN",38.8805655,-99.29609395,"OPEN"
"937","HERINGTON MUNICIPAL HOSPITAL","CRITICAL ACCESS","OPEN",38.68010201,-96.94226508,"OPEN"
"938","ALLEN COUNTY HOSPITAL","GENERAL ACUTE CARE","CLOSED",37.92140928,-95.39432263,"OPEN"
"939","MERCY HOSPITALFORT SCOTT","GENERAL ACUTE CARE","OPEN",37.80540781,-94.70623226,"OPEN"
"940","ST CATHERINE HOSPITAL","GENERAL ACUTE CARE","OPEN",37.96986655,-100.8683878,"OPEN"
"941","SOUTH CENTRAL KS  MED CENTER","GENERAL ACUTE CARE","OPEN",37.13299682,-97.03850329,"OPEN"
"942","DOCTORS HOSPITAL LLC","GENERAL ACUTE CARE","OPEN",38.92712245,-94.64366278,"OPEN"
"943","HOSP METROPOLITANO DR TITO MATTEI","GENERAL ACUTE CARE","OPEN",18.03130077,-66.85759699,"OPEN"
"944","MINIMALLY INVASIVE SURGERY HOSPITAL","SPECIAL","OPEN",38.92442295,-94.76900543,"OPEN"
"945","MANHATTAN SURGICAL HOSPITAL LLC","GENERAL ACUTE CARE","OPEN",39.20276803,-96.59902718,"OPEN"
"946","VIA CHRISTI HEALTH","GENERAL ACUTE CARE","OPEN",39.20130921,-96.59893043,"OPEN"
"947","MCPHERSON HOSPITAL INC","GENERAL ACUTE CARE","OPEN",38.37878275,-97.67346174,"OPEN"
"948","MINNEOLA DISTRICT HOSPITAL","GENERAL ACUTE CARE","OPEN",37.44152763,-100.0133202,"OPEN"
"949","MERCY HOSPITAL","GENERAL ACUTE CARE","OPEN",38.20528114,-97.51689311,"OPEN"
"950","NEWTON MEDICAL CENTER","GENERAL ACUTE CARE","OPEN",38.02296944,-97.33290423,"OPEN"
"951","PRAIRIE VIEW INC","GENERAL ACUTE CARE","OPEN",38.04027656,-97.31307896,"OPEN"
"952","WILSON MEDICAL CENTER","GENERAL ACUTE CARE","OPEN",37.40957059,-95.70833215,"OPEN"
"953","NESS COUNTY HOSPITAL","GENERAL ACUTE CARE","OPEN",38.45825339,-99.90164077,"OPEN"
"954","NORTON COUNTY HOSPITAL","GENERAL ACUTE CARE","OPEN",39.83794589,-99.8881128,"OPEN"
"955","COMMUNITY HOSPITAL  ONAGA AND ST MARYS CAMPUS","GENERAL ACUTE CARE","OPEN",39.4959886,-96.17142807,"OPEN"
"956","LOGAN COUNTY HOSPITAL","GENERAL ACUTE CARE","OPEN",39.12710091,-100.8629543,"OPEN"
"957","DECATUR COUNTY HOSPITAL","GENERAL ACUTE CARE","OPEN",39.81592087,-100.5383415,"OPEN"
"958","OLATHE MEDICAL CENTER","GENERAL ACUTE CARE","OPEN",38.85275152,-94.82435622,"OPEN"
"959","OSAWATOMIE STATE HOSPITAL PSYCHIATRIC","PSYCHIATRIC","OPEN",38.51361554,-94.93994271,"OPEN"
"960","OSBORNE COUNTY MEMORIAL HOSPITAL","GENERAL ACUTE CARE","OPEN",39.43717595,-98.70148391,"OPEN"
"961","OSWEGO COMMUNITY HOSPITAL","GENERAL ACUTE CARE","OPEN",37.15981819,-95.11017649,"OPEN"
"962","RANSOM MEMORIAL HOSPITAL","GENERAL ACUTE CARE","OPEN",38.59634996,-95.26761714,"OPEN"
"963","BLUE VALLEY HOSPITAL INC","GENERAL ACUTE CARE","OPEN",38.89628614,-94.66912856,"OPEN"
"964","CHILDREN S MERCY  SOUTH","GENERAL ACUTE CARE","OPEN",38.92985633,-94.65239313,"OPEN"
"965","MID AMERICA REHABILITATION HOSPITAL","REHABILITATION","OPEN",38.92891179,-94.65136062,"OPEN"
"966","MENORAH MEDICAL CENTER","GENERAL ACUTE CARE","OPEN",38.91055622,-94.65199657,"OPEN"
"967","OVERLAND PARK REG MED CTR","GENERAL ACUTE CARE","OPEN",38.9374642,-94.72641401,"OPEN"
"968","SAINT LUKE S SOUTH HOSPITAL","GENERAL ACUTE CARE","OPEN",38.90396961,-94.66903502,"OPEN"
"969","MIAMI COUNTY MEDICAL CENTER","GENERAL ACUTE CARE","OPEN",38.56931793,-94.8490647,"OPEN"
"970","LABETTE HEALTH","GENERAL ACUTE CARE","OPEN",37.32108073,-95.26445638,"OPEN"
"971","PHILLIPS COUNTY HOSPITAL","GENERAL ACUTE CARE","OPEN",39.75532902,-99.31323179,"OPEN"
"972","VIA CHRISTI HOSPITAL PITTSBURG INC","GENERAL ACUTE CARE","OPEN",37.38015855,-94.6846295,"OPEN"
"973","RUSSELL REGIONAL HOSPITAL","GENERAL ACUTE CARE","OPEN",38.88275712,-98.85970458,"OPEN"
"974","PRATT REGIONAL MEDICAL CENTER","GENERAL ACUTE CARE","OPEN",37.64450019,-98.72928351,"OPEN"
"975","SALINA REGIONAL HEALTH CENTER","GENERAL ACUTE CARE","OPEN",38.8334337,-97.61003135,"OPEN"
"976","GOVE COUNTY MEDICAL CENTER","GENERAL ACUTE CARE","OPEN",39.06757357,-100.2407159,"OPEN"
"977","SALINA SURGICAL HOSPITAL","SPECIAL","OPEN",38.83361335,-97.60844663,"OPEN"
"978","GRISELL MEMORIAL HOSPITAL","GENERAL ACUTE CARE","OPEN",38.63598862,-99.93115241,"OPEN"
"979","ROOKS COUNTY HEALTH CENTER","GENERAL ACUTE CARE","OPEN",39.24756495,-99.29646244,"OPEN"
"980","SEDAN CITY HOSPITAL","GENERAL ACUTE CARE","OPEN",37.13388222,-96.18911792,"OPEN"
"981","NEMAHA VALLEY COMMUNITY HOSPITAL","GENERAL ACUTE CARE","OPEN",39.83744,-96.07813051,"OPEN"
"982","SABETHA COMMUNITY HOSPITAL","GENERAL ACUTE CARE","OPEN",39.89892954,-95.80812231,"OPEN"
"983","SHAWNEE MISSION MEDICAL CENTER","GENERAL ACUTE CARE","OPEN",38.99554279,-94.69265948,"OPEN"
"984","SMITH COUNTY MEMORIAL HOSPITAL","GENERAL ACUTE CARE","OPEN",39.77108862,-98.78484225,"OPEN"
"985","CHEYENNE COUNTY HOSPITAL","GENERAL ACUTE CARE","OPEN",39.77135327,-101.8032243,"OPEN"
"986","STAFFORD COUNTY HOSPITAL","GENERAL ACUTE CARE","OPEN",37.95668332,-98.59544381,"OPEN"
"987","ST FRANCIS HEALTH CENTER INC","GENERAL ACUTE CARE","OPEN",39.05659914,-95.69621785,"OPEN"
"988","THE KANSAS REHABILITATION HOSPITAL","REHABILITATION","OPEN",39.05486809,-95.69476647,"OPEN"
"989","STORMONTVAIL HEALTHCARE","GENERAL ACUTE CARE","OPEN",39.05078798,-95.69651201,"OPEN"
"990","HAMILTON COUNTY HOSPITAL","GENERAL ACUTE CARE","OPEN",37.98486315,-101.7424324,"OPEN"
"991","GREELEY COUNTY HEALTH SERVICES","GENERAL ACUTE CARE","OPEN",38.47033595,-101.7493949,"OPEN"
"992","BOB WILSON MEMORIAL GRANT COUNTY HOSPITAL","GENERAL ACUTE CARE","OPEN",37.58467204,-101.3586672,"OPEN"
"993","TREGO COUNTY LEMKE MEMORIAL HOSPITAL","GENERAL ACUTE CARE","OPEN",39.02731159,-99.87109478,"OPEN"
"994","WAMEGO CITY HOSPITAL","GENERAL ACUTE CARE","OPEN",39.20483342,-96.31905781,"OPEN"
"995","WASHINGTON COUNTY HOSPITAL","GENERAL ACUTE CARE","OPEN",39.8175252,-97.04640479,"OPEN"
"996","SUMNER REGIONAL MEDICAL CENTER","GENERAL ACUTE CARE","OPEN",37.27864521,-97.39297897,"OPEN"
"997","KANSAS HEART HOSPITAL","SPECIAL","OPEN",37.75003838,-97.22754327,"OPEN"
"998","KANSAS SPINE HOSPITAL LLC","GENERAL ACUTE CARE","OPEN",37.74357302,-97.22721519,"OPEN"
"999","KANSAS SURGERY & RECOVERY CENTER","GENERAL ACUTE CARE","OPEN",37.73306135,-97.22501377,"OPEN"
"1000","VIA CHRISTI HOSPITALS WICHITA INC","REHABILITATION","OPEN",37.69989945,-97.33227815,"OPEN"
"1001","SELECT SPECIALTY HOSPITAL WICHITA","LONG TERM CARE","OPEN",37.69947056,-97.33130622,"OPEN"
"1002","VIA CHRISTI HOSPITAL WICHITA ST TERESA INC","GENERAL ACUTE CARE","OPEN",37.72574688,-97.51321048,"OPEN"
"1003","VIA CHRISTI REHABILITATION HOSPITAL INC","REHABILITATION","OPEN",37.70392156,-97.24602887,"OPEN"
"1004","WESLEY MEDICAL CENTER","GENERAL ACUTE CARE","OPEN",37.69499303,-97.29790346,"OPEN"
"1005","WESLEY REHABILITATION HOSPITAL","REHABILITATION","OPEN",37.70958184,-97.43882277,"OPEN"
"1006","AMG SPECIALTY HOSPITAL-WICHITA","LONG TERM CARE","OPEN",37.65508771,-97.24269404,"OPEN"
"1007","F. W. HUSTON MEDICAL CENTER","GENERAL ACUTE CARE","OPEN",39.32589198,-95.27016568,"OPEN"
"1008","WILLIAM NEWTON HOSPITAL","GENERAL ACUTE CARE","OPEN",37.24516807,-96.98210155,"OPEN"
"1009","WESLEY WOODLAWN HOSPITAL","SPECIAL","OPEN",37.73122465,-97.26058197,"OPEN"
"1010","MEMORIAL HERMANN HOSPITAL","GENERAL ACUTE CARE","OPEN",29.71455117,-95.39628203,"OPEN"
"1011","CASTLE MEDICAL CENTER","GENERAL ACUTE CARE","OPEN",21.38097936,-157.7578005,"OPEN"
"1012","PROFESSIONAL HOSP INC - MANATI","GENERAL ACUTE CARE","OPEN",18.42993074,-66.4938181,"OPEN"
"1013","HOSP METROPOLITANO DR SUSONI","GENERAL ACUTE CARE","OPEN",18.47328848,-66.71691497,"OPEN"
"1014","HOSP DR. CAYETANO COLL Y TOSTE","GENERAL ACUTE CARE","OPEN",18.46704554,-66.7311406,"OPEN"
"1015","HOSP GENERAL CASTANER INC","GENERAL ACUTE CARE","OPEN",18.18101307,-66.83318175,"OPEN"
"1016","DOCTORS CENTER HOSPITAL- MANATI","GENERAL ACUTE CARE","OPEN",18.43367476,-66.47396819,"OPEN"
"1017","MANATI MEDICAL CENTER DR ALEJANDRO OTERO LOPEZ","GENERAL ACUTE CARE","OPEN",18.43455435,-66.4824951,"OPEN"
"1018","CSF - UTUADO","GENERAL ACUTE CARE","OPEN",18.259661,-66.70652,"OPEN"
"1019","INST MEDICO DEL NORTE INC  CENTRO MEDICO WILMA N VAZQUEZ","GENERAL ACUTE CARE","OPEN",18.44633356,-66.37704376,"OPEN"
"1020","HOSPITAL BUEN SAMARITANO","GENERAL ACUTE CARE","OPEN",18.44280934,-67.15088511,"OPEN"
"1021","HOSP SAN CARLOS BORROMEO","GENERAL ACUTE CARE","OPEN",18.39019435,-67.10996904,"OPEN"
"1022","HOSP PEREA","GENERAL ACUTE CARE","OPEN",18.20273299,-67.13982639,"OPEN"
"1023","CLINICA ESPANOLA INC","GENERAL ACUTE CARE","OPEN",18.20615773,-67.13146105,"OPEN"
"1024","HOSP BELLA VISTA","GENERAL ACUTE CARE","OPEN",18.18676401,-67.11919677,"OPEN"
"1025","HOSP SAN ANTONIO INC","GENERAL ACUTE CARE","OPEN",18.20324168,-67.14102334,"OPEN"
"1026","HOSP METROPOLITANO DE SAN GERMAN","SPECIAL","OPEN",18.08263306,-67.0400489,"OPEN"
"1027","HOSP DE LA CONCEPCION","GENERAL ACUTE CARE","OPEN",18.09880911,-67.03816476,"OPEN"
"1028","LAFAYETTE HOSPITAL","GENERAL ACUTE CARE","OPEN",17.97596128,-66.05836758,"OPEN"
"1029","HOSP DAMAS","GENERAL ACUTE CARE","OPEN",17.99712808,-66.61764045,"OPEN"
"1030","DR. PILA S HOSPITAL","GENERAL ACUTE CARE","OPEN",18.00368162,-66.6106587,"OPEN"
"1031","HIMA SAN PABLO - BAYAMON","GENERAL ACUTE CARE","OPEN",18.39742538,-66.14752306,"OPEN"
"1032","CENTRO DE SALUD INTEGRAL DE OROCOVIS","GENERAL ACUTE CARE","OPEN",18.226651,-66.39434514,"OPEN"
"1033","HOSP GENERAL MENONITA - AIBONITO","GENERAL ACUTE CARE","OPEN",18.14379446,-66.26170737,"OPEN"
"1034","HOSP GENERAL MENONITA - CAYEY","GENERAL ACUTE CARE","OPEN",18.1240463,-66.14748152,"OPEN"
"1035","HIMA SAN PABLO - HUMACAO","GENERAL ACUTE CARE","OPEN",18.15070305,-65.82670296,"OPEN"
